{
  "65328703": {
    "name": "Dragon's Gate",
    "lat": 37.7906877,
    "lon": -122.4055936
  },
  "258660872": {
    "name": "Phillip Burton",
    "lat": 37.8051083,
    "lon": -122.429561
  },
  "317077257": {
    "name": "Oracle Park valet bicycle parking",
    "lat": 37.7776808,
    "lon": -122.389231
  },
  "317081601": {
    "name": "California Society of Pioneers Museum and Library",
    "lat": 37.7999996,
    "lon": -122.4596162
  },
  "332786657": {
    "name": "Inspiration Point",
    "lat": 37.7922232,
    "lon": -122.4582622
  },
  "358767175": {
    "name": "Harding Park",
    "lat": 37.722374,
    "lon": -122.4908797
  },
  "358775312": {
    "name": "Silver Terrace Playground",
    "lat": 37.7330108,
    "lon": -122.4033622
  },
  "358803503": {
    "name": "Alamo Square Historic District",
    "lat": 37.7771517,
    "lon": -122.4349713
  },
  "358803549": {
    "name": "Candlestick Point State Recreation Area",
    "lat": 37.7096537,
    "lon": -122.3802486
  },
  "358803650": {
    "name": "Jackson Square Historic District",
    "lat": 37.7968731,
    "lon": -122.4030265
  },
  "358803668": {
    "name": "Lake Merced Sports Center",
    "lat": 37.7254875,
    "lon": -122.4994167
  },
  "358803681": {
    "name": "Louis Sutter Playground",
    "lat": 37.7224769,
    "lon": -122.4136718
  },
  "358803706": {
    "name": "Milton Myer Recreation Center",
    "lat": 37.7296529,
    "lon": -122.376915
  },
  "358803711": {
    "name": "Mission Community Recreation Center",
    "lat": 37.7582633,
    "lon": -122.4127487
  },
  "358804665": {
    "name": "Potrero Hill Recreation Center",
    "lat": 37.7560411,
    "lon": -122.3971929
  },
  "358804692": {
    "name": "Rolph-Nicol Playground",
    "lat": 37.7307467,
    "lon": -122.4802503
  },
  "358804951": {
    "name": "Upper Noe Recreation Center",
    "lat": 37.7424,
    "lon": -122.427843
  },
  "358805248": {
    "name": "Farallon Islands State Game Refuge",
    "lat": 37.7457632,
    "lon": -123.0577788
  },
  "358805377": {
    "name": "Aquatic Park Historic District",
    "lat": 37.8067847,
    "lon": -122.423066
  },
  "358805379": {
    "name": "Bush Street-Cottage Row Historic District",
    "lat": 37.7870234,
    "lon": -122.4325519
  },
  "358805401": {
    "name": "Russian Hill-Vallejo Street Crest Historic District",
    "lat": 37.7976884,
    "lon": -122.4149138
  },
  "358838556": {
    "name": "Presidio of San Francisco",
    "lat": 37.7999124,
    "lon": -122.4638288
  },
  "358849982": {
    "name": "San Francisco Maritime National Historical Park",
    "lat": 37.8065013,
    "lon": -122.4233939
  },
  "358857211": {
    "name": "Negoesco Stadium",
    "lat": 37.7765691,
    "lon": -122.4538889
  },
  "358857214": {
    "name": "Ulrich Field",
    "lat": 37.7769444,
    "lon": -122.4477778
  },
  "358857215": {
    "name": "Benedetti Diamond",
    "lat": 37.7769444,
    "lon": -122.4480556
  },
  "368166365": {
    "name": "Mus\u00e9e M\u00e9canique",
    "lat": 37.8092456,
    "lon": -122.415794
  },
  "368173914": {
    "name": "Steinhart Aquarium",
    "lat": 37.7694853,
    "lon": -122.4659769
  },
  "368173937": {
    "name": "San Francisco International Toy Museum",
    "lat": 37.8071507,
    "lon": -122.4188602
  },
  "368173940": {
    "name": "Museo Italo Americano",
    "lat": 37.7994878,
    "lon": -122.4102893
  },
  "368173962": {
    "name": "Treasure Island Museum",
    "lat": 37.8171501,
    "lon": -122.370804
  },
  "368173965": {
    "name": "California Crafts Museum",
    "lat": 37.8057809,
    "lon": -122.422269
  },
  "368173966": {
    "name": "American Carousel Museum",
    "lat": 37.8065952,
    "lon": -122.4199713
  },
  "368173968": {
    "name": "California Historical Society Museum",
    "lat": 37.7929846,
    "lon": -122.4294157
  },
  "368173972": {
    "name": "Museum of Ophthalmology",
    "lat": 37.8065952,
    "lon": -122.4202491
  },
  "368173975": {
    "name": "Museum of Russian Culture",
    "lat": 37.7852071,
    "lon": -122.4413603
  },
  "368173977": {
    "name": "Pacific Heritage Museum",
    "lat": 37.7941918,
    "lon": -122.4036074
  },
  "386591692": {
    "name": "San Francisco Railway Musuem",
    "lat": 37.7938022,
    "lon": -122.3936744
  },
  "415567011": {
    "name": "California Historical Society Museum & Bookstore",
    "lat": 37.7868729,
    "lon": -122.4015219
  },
  "415567060": {
    "name": "Museum of the African Diaspora",
    "lat": 37.7864689,
    "lon": -122.4014732
  },
  "417275631": {
    "name": "San Francisco Sea Scout Base",
    "lat": 37.8074682,
    "lon": -122.4261807
  },
  "497588297": {
    "name": "Mussel Point",
    "lat": 38.3233908,
    "lon": -123.0785446
  },
  "503825689": {
    "name": "Point Sur",
    "lat": 36.3066667,
    "lon": -121.9027682
  },
  "525164215": {
    "name": "Wooden Carving",
    "lat": 37.7597366,
    "lon": -122.4565671
  },
  "571374368": {
    "name": "Good Prospect Community Garden",
    "lat": 37.739994,
    "lon": -122.420967
  },
  "590952130": {
    "name": "Wave Organ",
    "lat": 37.8084829,
    "lon": -122.4401836
  },
  "599157316": {
    "name": "Christmas Tree Point",
    "lat": 37.7549299,
    "lon": -122.4466425
  },
  "621529017": {
    "name": "Exploratorium",
    "lat": 37.800906,
    "lon": -122.398523
  },
  "621660327": {
    "name": "Midway Point",
    "lat": 36.5670699,
    "lon": -121.964052
  },
  "633021125": {
    "name": "Mt. Davidson Vista Point",
    "lat": 37.7384531,
    "lon": -122.4531814
  },
  "665688981": {
    "name": "Yoda Fountain",
    "lat": 37.7988181,
    "lon": -122.450477
  },
  "665689214": {
    "name": "Immigrant Point Overlook",
    "lat": 37.7961682,
    "lon": -122.477875
  },
  "718375841": {
    "name": "Far Out Gallery",
    "lat": 37.7421833,
    "lon": -122.4983967
  },
  "806240639": {
    "name": "Chinese Historical Society of America",
    "lat": 37.7938848,
    "lon": -122.408798
  },
  "810359162": {
    "name": "Shields Orizaba Rocky Outcrop",
    "lat": 37.7180883,
    "lon": -122.4625774
  },
  "822484002": {
    "name": "Painted Ladies",
    "lat": 37.776199,
    "lon": -122.432755
  },
  "994238510": {
    "name": "Noe Valley Courts",
    "lat": 37.7513307,
    "lon": -122.4388671
  },
  "999546395": {
    "name": "Fulton Street & La Playa Street",
    "lat": 37.7713267,
    "lon": -122.5094808
  },
  "1067969795": {
    "name": "Bay Bridge and Treasure Island Viewpoint",
    "lat": 37.7944834,
    "lon": -122.3897661
  },
  "1145969948": {
    "name": "three_dog_heads",
    "lat": 37.8262996,
    "lon": -122.370448
  },
  "1147880103": {
    "name": "Smile - Man Taking Photo Statue",
    "lat": 37.790995,
    "lon": -122.3917115
  },
  "1183479527": {
    "name": "Twin Peaks",
    "lat": 37.75464,
    "lon": -122.44648
  },
  "1183479599": {
    "name": "Treasure Island Naval Station",
    "lat": 37.816293,
    "lon": -122.371733
  },
  "1206749885": {
    "name": "SF Camerawork",
    "lat": 37.7868648,
    "lon": -122.4006933
  },
  "1250280541": {
    "name": "Sister City Gardens",
    "lat": 37.7844545,
    "lon": -122.4020158
  },
  "1306296013": {
    "name": "Heron's Head Park Bird Blinds",
    "lat": 37.7380988,
    "lon": -122.3729222
  },
  "1308317902": {
    "name": "Golden Gate Fortune Cookie Factory",
    "lat": 37.795699,
    "lon": -122.407349
  },
  "1350922072": {
    "name": "Camellia Gardens",
    "lat": 37.7721126,
    "lon": -122.4575307
  },
  "1417635914": {
    "name": "Sea Lions",
    "lat": 37.8106359,
    "lon": -122.4115806
  },
  "1450189977": {
    "name": "Port of Trade Winds Harbor Beach",
    "lat": 37.8131403,
    "lon": -122.369334
  },
  "1526523442": {
    "name": "Alcatraz",
    "lat": 37.8253259,
    "lon": -122.4213619
  },
  "1564452801": {
    "name": "Crissy Field Center",
    "lat": 37.8060059,
    "lon": -122.448993
  },
  "1564470252": {
    "name": "Spire",
    "lat": 37.7919042,
    "lon": -122.4600195
  },
  "1709352211": {
    "name": "The Parapet",
    "lat": 37.7778534,
    "lon": -122.5121831
  },
  "1948074360": {
    "name": "Strawberry Hill",
    "lat": 37.7686676,
    "lon": -122.4755124
  },
  "2026996113": {
    "name": "111 Minna",
    "lat": 37.7874165,
    "lon": -122.3993312
  },
  "2321383070": {
    "name": "GLBT History Museum",
    "lat": 37.7607664,
    "lon": -122.435607
  },
  "2341179749": {
    "name": "Madame Tussauds San Francisco",
    "lat": 37.8081859,
    "lon": -122.4148792
  },
  "2365845678": {
    "name": "Magowan's Infinite Mirror Maze",
    "lat": 37.8100577,
    "lon": -122.4102771
  },
  "2406468887": {
    "name": "National AIDS Memorial Grove",
    "lat": 37.7699035,
    "lon": -122.4609523
  },
  "2567140420": {
    "name": "The Thinker",
    "lat": 37.7847248,
    "lon": -122.500501
  },
  "2579643653": {
    "name": "Bank of Canton (former Chinese Telephone Exchange)",
    "lat": 37.7950734,
    "lon": -122.4062668
  },
  "2627667993": {
    "name": "Page & Laguna Community Garden",
    "lat": 37.7735256,
    "lon": -122.4252808
  },
  "2627670561": {
    "name": "Koshland Park Community Garden",
    "lat": 37.7732997,
    "lon": -122.4263834
  },
  "2627671922": {
    "name": "Page Street Community Garden",
    "lat": 37.7735235,
    "lon": -122.4280888
  },
  "2627702907": {
    "name": "Corwin Street Community Garden",
    "lat": 37.7574098,
    "lon": -122.4391382
  },
  "2627730431": {
    "name": "Crags Court Community Garden",
    "lat": 37.7413665,
    "lon": -122.440633
  },
  "2627740453": {
    "name": "Park Street Community Garden",
    "lat": 37.7364603,
    "lon": -122.4257655
  },
  "2627761804": {
    "name": "Kid Power Park Community Garden",
    "lat": 37.7641918,
    "lon": -122.420224
  },
  "2627767256": {
    "name": "Arkansas Friendship Community Garden",
    "lat": 37.7573265,
    "lon": -122.397618
  },
  "2627767875": {
    "name": "Connecticut Friendship Community Garden",
    "lat": 37.7573604,
    "lon": -122.3968857
  },
  "2627776189": {
    "name": "Lessing & Sears Community Garden",
    "lat": 37.7085798,
    "lon": -122.4551728
  },
  "2627794649": {
    "name": "Gallery Paule Anglim",
    "lat": 37.7880705,
    "lon": -122.4039207
  },
  "2627803906": {
    "name": "ArtZone 461 Gallery",
    "lat": 37.7655198,
    "lon": -122.4216314
  },
  "2713436108": {
    "name": "Fairy Circle",
    "lat": 37.7229871,
    "lon": -122.4781764
  },
  "2721823472": {
    "name": "Waterfall Column",
    "lat": 37.7232593,
    "lon": -122.4813528
  },
  "2721825793": {
    "name": "Hall of fame photo collage",
    "lat": 37.7237776,
    "lon": -122.4780663
  },
  "2721828529": {
    "name": "Secret Garden",
    "lat": 37.7232459,
    "lon": -122.4780564
  },
  "2724198095": {
    "name": "Tiger sculpture",
    "lat": 37.7216622,
    "lon": -122.4787624
  },
  "2724208120": {
    "name": "Couple's Statue",
    "lat": 37.7227921,
    "lon": -122.4806216
  },
  "2726228491": {
    "name": "Stormwater / Roofwater Management Bioswales",
    "lat": 37.7225694,
    "lon": -122.4766931
  },
  "2726228500": {
    "name": "Habitat Gardens",
    "lat": 37.7234748,
    "lon": -122.4796587
  },
  "2802306724": {
    "name": "Landscape Learning Library",
    "lat": 37.7210093,
    "lon": -122.4779047
  },
  "2802308703": {
    "name": "Habitat Garden",
    "lat": 37.7227815,
    "lon": -122.4755973
  },
  "2969748418": {
    "name": "Children's Garden",
    "lat": 37.7660355,
    "lon": -122.4749591
  },
  "2969748419": {
    "name": "Nursery Center for Sustainable Gardening",
    "lat": 37.7662433,
    "lon": -122.473044
  },
  "2969748420": {
    "name": "Redwood Grove",
    "lat": 37.7666632,
    "lon": -122.4718853
  },
  "2969748421": {
    "name": "Succulent Garden",
    "lat": 37.7668879,
    "lon": -122.4726364
  },
  "2969748422": {
    "name": "Southeast Asian Cloud Forest",
    "lat": 37.7672611,
    "lon": -122.4724003
  },
  "2969748423": {
    "name": "Camellia Garden",
    "lat": 37.768071,
    "lon": -122.4714776
  },
  "2969748424": {
    "name": "Moon Viewing Garden",
    "lat": 37.7678336,
    "lon": -122.4717888
  },
  "2969748425": {
    "name": "Zellenbach Garden of Perennials",
    "lat": 37.7683848,
    "lon": -122.4720127
  },
  "2969748426": {
    "name": "Andean Cloud Forest Garden",
    "lat": 37.768775,
    "lon": -122.4714991
  },
  "2969748427": {
    "name": "Australia Garden",
    "lat": 37.7688386,
    "lon": -122.4705979
  },
  "2969748428": {
    "name": "Gondwana Circle",
    "lat": 37.7686046,
    "lon": -122.4708851
  },
  "2969748429": {
    "name": "New Zealand Garden",
    "lat": 37.7678548,
    "lon": -122.4704799
  },
  "2969748430": {
    "name": "South Africa Garden",
    "lat": 37.7675325,
    "lon": -122.4699917
  },
  "2969748431": {
    "name": "Ancient Plant Garden",
    "lat": 37.768758,
    "lon": -122.469938
  },
  "2969748432": {
    "name": "Rhododendron Garden",
    "lat": 37.7685629,
    "lon": -122.4690851
  },
  "2969749533": {
    "name": "Mediterranean Garden",
    "lat": 37.7681474,
    "lon": -122.4695035
  },
  "2969749534": {
    "name": "Garden of Fragrance",
    "lat": 37.7680838,
    "lon": -122.4684575
  },
  "2969749535": {
    "name": "Exhibition Garden",
    "lat": 37.7676427,
    "lon": -122.4674651
  },
  "2969749536": {
    "name": "Temperate Asia Garden",
    "lat": 37.7662985,
    "lon": -122.4683019
  },
  "2969749537": {
    "name": "Meso American Cloud Forest",
    "lat": 37.766748,
    "lon": -122.469187
  },
  "2969749538": {
    "name": "California Native Garden",
    "lat": 37.7664596,
    "lon": -122.4705013
  },
  "3077094260": {
    "name": "Dahlia Dell",
    "lat": 37.7726425,
    "lon": -122.4578759
  },
  "3101265351": {
    "name": "Observation Deck",
    "lat": 37.7141735,
    "lon": -122.5032578
  },
  "3102310161": {
    "name": "Pax Jerusalemme",
    "lat": 37.7855077,
    "lon": -122.499358
  },
  "3257706561": {
    "name": "Shaking Man",
    "lat": 37.7841438,
    "lon": -122.4025102
  },
  "3257706562": {
    "name": "Urge",
    "lat": 37.7834874,
    "lon": -122.4017119
  },
  "3274030861": {
    "name": "Lightfold",
    "lat": 37.7877691,
    "lon": -122.4040242
  },
  "3357102023": {
    "name": "The Banker's Heart",
    "lat": 37.7924417,
    "lon": -122.403978
  },
  "3401354577": {
    "name": "Lands End Labyrinth",
    "lat": 37.7879889,
    "lon": -122.5058796
  },
  "3640213359": {
    "name": "Annie St Plaza",
    "lat": 37.7869717,
    "lon": -122.4014153
  },
  "3690164348": {
    "name": "Musical Steps",
    "lat": 37.8100175,
    "lon": -122.410352
  },
  "3859909729": {
    "name": "Little Puffer Steam Train Depot",
    "lat": 37.7332281,
    "lon": -122.500254
  },
  "3860138780": {
    "name": "African Savanna Viewpoint",
    "lat": 37.7328972,
    "lon": -122.5046833
  },
  "3860321519": {
    "name": "African Region Viewpoint",
    "lat": 37.7317491,
    "lon": -122.5055287
  },
  "3860321520": {
    "name": "Giraffe Viewpoint",
    "lat": 37.7320328,
    "lon": -122.5045202
  },
  "3860321541": {
    "name": "Java Dog Statue",
    "lat": 37.735466,
    "lon": -122.5029833
  },
  "4013664175": {
    "name": "Wiggle Bike Mural",
    "lat": 37.7694419,
    "lon": -122.4284323
  },
  "4022613414": {
    "name": "The Mexican Museum",
    "lat": 37.8068213,
    "lon": -122.4307755
  },
  "4022645781": {
    "name": "Museo Italo Americano",
    "lat": 37.8069681,
    "lon": -122.4314174
  },
  "4046025013": {
    "name": "John Pence Gallery",
    "lat": 37.7877471,
    "lon": -122.4141586
  },
  "4057348983": {
    "name": "Museum of Craft and Design",
    "lat": 37.7569273,
    "lon": -122.3879599
  },
  "4110675636": {
    "name": "Buddha",
    "lat": 37.7703183,
    "lon": -122.469942
  },
  "4110675669": {
    "name": "Peace Lantern",
    "lat": 37.7701084,
    "lon": -122.4705776
  },
  "4127224064": {
    "name": "Big Heart on the Rock",
    "lat": 37.7979162,
    "lon": -122.3989876
  },
  "4149743879": {
    "name": "Guardians of the Gate Sea Lions Statue",
    "lat": 37.8086819,
    "lon": -122.410767
  },
  "4179665037": {
    "name": "Eagles Point Overlook",
    "lat": 37.7867354,
    "lon": -122.4948334
  },
  "4202269447": {
    "name": "Golden Gate Overlook",
    "lat": 37.8040128,
    "lon": -122.4766999
  },
  "4207307534": {
    "name": "Pacific Overlook",
    "lat": 37.8008194,
    "lon": -122.4779725
  },
  "4212477106": {
    "name": "La Rose des Vents",
    "lat": 37.7719645,
    "lon": -122.460135
  },
  "4212482733": {
    "name": "Los Lobos de Loyola",
    "lat": 37.7762725,
    "lon": -122.4518834
  },
  "4220113808": {
    "name": "Spread the Word",
    "lat": 37.8083726,
    "lon": -122.4707692
  },
  "4220113840": {
    "name": "Cannon",
    "lat": 37.8032726,
    "lon": -122.4666427
  },
  "4220113841": {
    "name": "Cannon",
    "lat": 37.8032362,
    "lon": -122.4664865
  },
  "4242437689": {
    "name": "California and Powell streets",
    "lat": 37.7920515,
    "lon": -122.4091846
  },
  "4242452389": {
    "name": "Rainbow Crosswalk",
    "lat": 37.7608976,
    "lon": -122.435032
  },
  "4257831621": {
    "name": "Olmec Head",
    "lat": 37.7273795,
    "lon": -122.45107
  },
  "4265263191": {
    "name": "Lover's Rock",
    "lat": 37.7139428,
    "lon": -122.4254366
  },
  "4265327027": {
    "name": "Philosopher's Hill and Labyrinth",
    "lat": 37.7204188,
    "lon": -122.4207179
  },
  "4265327050": {
    "name": "Watertower View",
    "lat": 37.7231351,
    "lon": -122.4244302
  },
  "4265327055": {
    "name": "Gambier Plaza",
    "lat": 37.7243208,
    "lon": -122.4208026
  },
  "4265327212": {
    "name": "Hidden Bridge",
    "lat": 37.7214886,
    "lon": -122.4145929
  },
  "4265327213": {
    "name": "Hidden Bridge",
    "lat": 37.721099,
    "lon": -122.415104
  },
  "4265327214": {
    "name": "Hidden Bridge",
    "lat": 37.7216596,
    "lon": -122.4152143
  },
  "4268951942": {
    "name": "Indian Head Rock",
    "lat": 37.7155771,
    "lon": -122.3957335
  },
  "4289777489": {
    "name": "Wells Fargo History Museum",
    "lat": 37.7933794,
    "lon": -122.4027008
  },
  "4293365608": {
    "name": "Animal Mural",
    "lat": 37.723633,
    "lon": -122.423338
  },
  "4293370299": {
    "name": "Porpoise",
    "lat": 37.723415,
    "lon": -122.419373
  },
  "4293457990": {
    "name": "Porpoise, Turtle, and Abstract",
    "lat": 37.719555,
    "lon": -122.412445
  },
  "4293479589": {
    "name": "Peter Richards Rock Art",
    "lat": 37.720617,
    "lon": -122.4151487
  },
  "4352185689": {
    "name": "Migrant Heart",
    "lat": 37.7935651,
    "lon": -122.446566
  },
  "4370295596": {
    "name": "Langton Labs",
    "lat": 37.7770629,
    "lon": -122.4094384
  },
  "4370393289": {
    "name": "Alter Space",
    "lat": 37.7770557,
    "lon": -122.4108319
  },
  "4421547689": {
    "name": "Tobin House",
    "lat": 37.7896383,
    "lon": -122.4266964
  },
  "4548821893": {
    "name": "Graffiti",
    "lat": 37.7514234,
    "lon": -122.4178111
  },
  "4613845060": {
    "name": "Bay Cruise Line",
    "lat": 37.8088929,
    "lon": -122.4113668
  },
  "4625172114": {
    "name": "Whale Tours",
    "lat": 37.8087621,
    "lon": -122.4100559
  },
  "4625205008": {
    "name": "Speciality Shops Art Gallery",
    "lat": 37.7885,
    "lon": -122.4058676
  },
  "4628571737": {
    "name": "Gallery 444",
    "lat": 37.788279,
    "lon": -122.409371
  },
  "4731441413": {
    "name": "Buena Vista Peace Symbol",
    "lat": 37.7705932,
    "lon": -122.4405792
  },
  "4731444688": {
    "name": "Buena Vista Park Waller Entrance",
    "lat": 37.7699468,
    "lon": -122.4393626
  },
  "4761684656": {
    "name": "A Very Small Gallery",
    "lat": 37.7643057,
    "lon": -122.4164108
  },
  "4773733656": {
    "name": "Jimmy Hendrix house",
    "lat": 37.770058,
    "lon": -122.4474656
  },
  "4773763428": {
    "name": "Grateful Dead house",
    "lat": 37.7686835,
    "lon": -122.4464957
  },
  "4773763623": {
    "name": "Janis Joplin house",
    "lat": 37.7694588,
    "lon": -122.4469748
  },
  "4867441963": {
    "name": "Friend Gate",
    "lat": 37.7690456,
    "lon": -122.47033
  },
  "4970567036": {
    "name": "Fort Point",
    "lat": 37.8107433,
    "lon": -122.4768004
  },
  "4972243722": {
    "name": "Lombard Street",
    "lat": 37.8021014,
    "lon": -122.418888
  },
  "4977796443": {
    "name": "Great West Arch",
    "lat": 37.7000836,
    "lon": -123.0132509
  },
  "5025094824": {
    "name": "Little Italy",
    "lat": 37.7966142,
    "lon": -122.4050834
  },
  "5038430321": {
    "name": "Cartoon Art Museum",
    "lat": 37.8063768,
    "lon": -122.4217874
  },
  "5128563699": {
    "name": "Southern Exposure",
    "lat": 37.759331,
    "lon": -122.4114628
  },
  "5134506932": {
    "name": "International Art Museum of America",
    "lat": 37.7814568,
    "lon": -122.4107385
  },
  "5134621034": {
    "name": "Tenderloin Museum",
    "lat": 37.783915,
    "lon": -122.4141209
  },
  "5146764731": {
    "name": "Pan American Unity",
    "lat": 37.7275585,
    "lon": -122.4511608
  },
  "5184250097": {
    "name": "Invocation Statue",
    "lat": 37.749648,
    "lon": -122.4030845
  },
  "5184723410": {
    "name": "Seals Sculpture",
    "lat": 37.7784112,
    "lon": -122.3876511
  },
  "5213680421": {
    "name": "Skyline",
    "lat": 37.7982407,
    "lon": -122.4136364
  },
  "5296472719": {
    "name": "San Francisco Dungeon",
    "lat": 37.8082093,
    "lon": -122.414802
  },
  "5423524022": {
    "name": "Coit Tower & East Bay",
    "lat": 37.8002518,
    "lon": -122.4183953
  },
  "5423541521": {
    "name": "3-way Russian Hill view",
    "lat": 37.798486,
    "lon": -122.4172351
  },
  "5423541522": {
    "name": "Coit Tower & Bay Bridge view",
    "lat": 37.7994183,
    "lon": -122.4174012
  },
  "5427706522": {
    "name": "Autodesk Gallery",
    "lat": 37.794149,
    "lon": -122.394787
  },
  "5441990638": {
    "name": "Venus",
    "lat": 37.7782335,
    "lon": -122.4131429
  },
  "5455625122": {
    "name": "\"Crab Topiary\" Crab Statue",
    "lat": 37.8085082,
    "lon": -122.410202
  },
  "5455630121": {
    "name": "Fisherman's Wharf of San Francisco",
    "lat": 37.808332,
    "lon": -122.415715
  },
  "5506735524": {
    "name": "Car Pool Pickup To Vallejo",
    "lat": 37.791748,
    "lon": -122.393155
  },
  "5509212822": {
    "name": "Pier 39",
    "lat": 37.8086301,
    "lon": -122.40979
  },
  "5566754390": {
    "name": "Miguel Hidalgo Memorial Statue",
    "lat": 37.7597368,
    "lon": -122.4276683
  },
  "5581588797": {
    "name": "The Beat Museum",
    "lat": 37.7980642,
    "lon": -122.4061837
  },
  "5595955721": {
    "name": "color factory",
    "lat": 37.7888204,
    "lon": -122.4097255
  },
  "5634062924": {
    "name": "China Town",
    "lat": 37.7968224,
    "lon": -122.4084681
  },
  "5735235209": {
    "name": "Inclusions Gallery",
    "lat": 37.7390524,
    "lon": -122.4154372
  },
  "5794706153": {
    "name": "Pride Barbie Doll Display in private windows",
    "lat": 37.7592007,
    "lon": -122.4346932
  },
  "5848243785": {
    "name": "Museum of Ice Cream",
    "lat": 37.7870077,
    "lon": -122.4051662
  },
  "5884541139": {
    "name": "Bradford Street",
    "lat": 37.7373339,
    "lon": -122.4097114
  },
  "5891843288": {
    "name": "Salesforce Park Cable Car",
    "lat": 37.7902017,
    "lon": -122.396751
  },
  "5891854685": {
    "name": "Salesforce Park Cable Car",
    "lat": 37.7898243,
    "lon": -122.3962548
  },
  "5905646187": {
    "name": "Peephole Cinema",
    "lat": 37.7492396,
    "lon": -122.4198786
  },
  "6032494975": {
    "name": "Adobe Books and Arts Cooperative",
    "lat": 37.7525786,
    "lon": -122.4148076
  },
  "6064575615": {
    "name": "Inspiration Point",
    "lat": 37.7924277,
    "lon": -122.4577101
  },
  "6064744363": {
    "name": "National Cemetery Overlook",
    "lat": 37.7974636,
    "lon": -122.465119
  },
  "6173285515": {
    "name": "MURAL 2",
    "lat": 37.7629941,
    "lon": -122.4208197
  },
  "6190594898": {
    "name": "Marsha's Beach",
    "lat": 37.8064594,
    "lon": -122.4784526
  },
  "6242792043": {
    "name": "Hashimoto Contemporary",
    "lat": 37.7886869,
    "lon": -122.4138808
  },
  "6333906199": {
    "name": "Fear Head",
    "lat": 37.7821072,
    "lon": -122.4114265
  },
  "6433062291": {
    "name": "Buckyball",
    "lat": 37.8012494,
    "lon": -122.3987696
  },
  "6467168692": {
    "name": "Joseph Strauss Legacy Circle",
    "lat": 37.8079723,
    "lon": -122.4754056
  },
  "6488849506": {
    "name": "Confluence",
    "lat": 37.788012,
    "lon": -122.409892
  },
  "6488849508": {
    "name": "Skyward",
    "lat": 37.7880505,
    "lon": -122.4096275
  },
  "6488917196": {
    "name": "Here Comes the Sun",
    "lat": 37.7875678,
    "lon": -122.4080322
  },
  "6498982997": {
    "name": "Double L Excentric Gyratory",
    "lat": 37.7793518,
    "lon": -122.416512
  },
  "6530499563": {
    "name": "Sweeping Through II",
    "lat": 37.7932333,
    "lon": -122.3941657
  },
  "6530499565": {
    "name": "Reconstruction (a new beginning)",
    "lat": 37.7931657,
    "lon": -122.3939099
  },
  "6536212408": {
    "name": "Playland Revisited",
    "lat": 37.7734051,
    "lon": -122.5099189
  },
  "6536261110": {
    "name": "North Observation Deck",
    "lat": 37.7787999,
    "lon": -122.5140691
  },
  "6551999561": {
    "name": "Untitled (Pirate)",
    "lat": 37.7718017,
    "lon": -122.467458
  },
  "6551999577": {
    "name": "Po\u00e8me de la Vigne",
    "lat": 37.7716005,
    "lon": -122.46754
  },
  "6551999578": {
    "name": "Neptune\u2019s Daughter",
    "lat": 37.7718246,
    "lon": -122.467898
  },
  "6582227560": {
    "name": "My Heart",
    "lat": 37.7919283,
    "lon": -122.3976865
  },
  "6592178864": {
    "name": "Thank You Teachers",
    "lat": 37.7752382,
    "lon": -122.4767023
  },
  "6592179996": {
    "name": "Argonne School Native Garden and Outdoor Classroom",
    "lat": 37.7748696,
    "lon": -122.4766707
  },
  "6604085460": {
    "name": "Mr. and Mrs. George F. Jewett, Jr. Exhibit Gallery",
    "lat": 37.7789259,
    "lon": -122.415593
  },
  "6621497633": {
    "name": "Pierced Monolith with Colour",
    "lat": 37.7710171,
    "lon": -122.4691127
  },
  "6621497635": {
    "name": "Winged Woman Walking IV",
    "lat": 37.7705901,
    "lon": -122.4693161
  },
  "6621497641": {
    "name": "Minuteman",
    "lat": 37.7706903,
    "lon": -122.4694586
  },
  "6621511985": {
    "name": "Corridor Pin, Blue",
    "lat": 37.7706935,
    "lon": -122.4691242
  },
  "6621512002": {
    "name": "Artificial Rock",
    "lat": 37.7713104,
    "lon": -122.4695184
  },
  "6625376822": {
    "name": "Windswept",
    "lat": 37.7643849,
    "lon": -122.4385487
  },
  "6651758229": {
    "name": "Ark",
    "lat": 37.784286,
    "lon": -122.4120542
  },
  "6675827854": {
    "name": "Seward Street Slides",
    "lat": 37.7578505,
    "lon": -122.4398757
  },
  "6691138540": {
    "name": "Ingleside Sundial",
    "lat": 37.7247095,
    "lon": -122.4687554
  },
  "6693646147": {
    "name": "National Japanese American Historical Society",
    "lat": 37.7857378,
    "lon": -122.4294507
  },
  "6698159285": {
    "name": "I have a dream mural",
    "lat": 37.7555307,
    "lon": -122.4193456
  },
  "6698159385": {
    "name": "Mission pool Murals",
    "lat": 37.7596525,
    "lon": -122.4226057
  },
  "6704402869": {
    "name": "Diana",
    "lat": 37.7787439,
    "lon": -122.5102025
  },
  "6711257655": {
    "name": "Hippocrates",
    "lat": 37.7637282,
    "lon": -122.4575595
  },
  "6743302325": {
    "name": "Promenade Gardens",
    "lat": 37.7770937,
    "lon": -122.454135
  },
  "6743302327": {
    "name": "Jesse Owens",
    "lat": 37.7771302,
    "lon": -122.4543986
  },
  "6780093120": {
    "name": "The Haight Mural",
    "lat": 37.769618,
    "lon": -122.4506924
  },
  "6791585441": {
    "name": "Mr. Foggy\u2019s Neighborhood",
    "lat": 37.783314,
    "lon": -122.4611164
  },
  "6824083570": {
    "name": "No Human Being Is Illegal",
    "lat": 37.773366,
    "lon": -122.4179607
  },
  "6839078151": {
    "name": "Louis Pasteur",
    "lat": 37.7799969,
    "lon": -122.4636658
  },
  "6910433490": {
    "name": "Skygate",
    "lat": 37.8080242,
    "lon": -122.408126
  },
  "6922632878": {
    "name": "Sunset Boulevard & Vicente Street",
    "lat": 37.7383438,
    "lon": -122.4941109
  },
  "6924250085": {
    "name": "Jazz mural",
    "lat": 37.7979642,
    "lon": -122.4071204
  },
  "6959502925": {
    "name": "Climate change is real",
    "lat": 37.7874603,
    "lon": -122.409794
  },
  "6960882346": {
    "name": "Heaven Art Gallery",
    "lat": 37.7911869,
    "lon": -122.4056061
  },
  "6960892851": {
    "name": "\"Comfort Women\" Column of Strength",
    "lat": 37.7918122,
    "lon": -122.40446
  },
  "6960980687": {
    "name": "WWII Pacific War Memorial Hall",
    "lat": 37.793272,
    "lon": -122.4063714
  },
  "6964627886": {
    "name": "Alamo Square Park",
    "lat": 37.7763434,
    "lon": -122.4347662
  },
  "7005442296": {
    "name": "Matter of Trust Eco-Home",
    "lat": 37.7677347,
    "lon": -122.4501479
  },
  "7015591920": {
    "name": "Bay Bridge Trail Lookout",
    "lat": 37.8107879,
    "lon": -122.3634003
  },
  "7045575485": {
    "name": "San Francisci Maritime",
    "lat": 37.8074955,
    "lon": -122.4205395
  },
  "7170659565": {
    "name": "George Moscone",
    "lat": 37.7846401,
    "lon": -122.4002619
  },
  "7177796746": {
    "name": "Goddess of Democracy",
    "lat": 37.7946676,
    "lon": -122.4054092
  },
  "7191732933": {
    "name": "Large Four Piece Reclining Figure",
    "lat": 37.7780771,
    "lon": -122.4201063
  },
  "7191732936": {
    "name": "Balanced, Unbalanced T",
    "lat": 37.7779012,
    "lon": -122.4209241
  },
  "7212382894": {
    "name": "Cable Car Turntable (Hyde & Beach)",
    "lat": 37.8070414,
    "lon": -122.4212372
  },
  "7212382895": {
    "name": "Cable Car Turntable (Taylor & Bay)",
    "lat": 37.8052318,
    "lon": -122.4152387
  },
  "7216367686": {
    "name": "View on Golden Gate Bridge & Richardson Bay",
    "lat": 37.8034799,
    "lon": -122.420047
  },
  "7221410485": {
    "name": "Lyon Steps",
    "lat": 37.7928413,
    "lon": -122.4464871
  },
  "7223586218": {
    "name": "Blooming on Fragrance Alley",
    "lat": 37.7940083,
    "lon": -122.4074946
  },
  "7223598886": {
    "name": "Resting Hermes",
    "lat": 37.7922151,
    "lon": -122.4087164
  },
  "7237427004": {
    "name": "Signal",
    "lat": 37.8226942,
    "lon": -122.3763819
  },
  "7238014842": {
    "name": "Lincoln Park Steps",
    "lat": 37.783517,
    "lon": -122.4936111
  },
  "7275728046": {
    "name": "Tolerance",
    "lat": 37.7842708,
    "lon": -122.437728
  },
  "7283489385": {
    "name": "Alcatraz and Hyde St Pier ships",
    "lat": 37.8035004,
    "lon": -122.4216801
  },
  "7434096721": {
    "name": "The Lyft Van",
    "lat": 37.7506823,
    "lon": -122.4027727
  },
  "7579456885": {
    "name": "Alcatraz",
    "lat": 37.8266309,
    "lon": -122.4228552
  },
  "7682208593": {
    "name": "Rainbow Honor Walk - Freddie Mercury",
    "lat": 37.7649043,
    "lon": -122.4320424
  },
  "7830656936": {
    "name": "Statue",
    "lat": 37.7632523,
    "lon": -122.4591101
  },
  "8117601542": {
    "name": "Shadow Kingdom",
    "lat": 37.7665946,
    "lon": -122.396863
  },
  "8178088526": {
    "name": "Hilltop Park Sundial",
    "lat": 37.7329217,
    "lon": -122.3838102
  },
  "8200387891": {
    "name": "The Box Shop Mural Project",
    "lat": 37.7331112,
    "lon": -122.3769028
  },
  "8527520436": {
    "name": "Nautical Swing",
    "lat": 37.7274916,
    "lon": -122.3667796
  },
  "8641952045": {
    "name": "Cable Car Turntable (Powell & Market)",
    "lat": 37.7847109,
    "lon": -122.4076986
  },
  "8645592585": {
    "name": "Balmy Alley",
    "lat": 37.7518165,
    "lon": -122.4124095
  },
  "8722065764": {
    "name": "Pine Tree Obelisk",
    "lat": 37.7972114,
    "lon": -122.3992421
  },
  "8722065769": {
    "name": "Portrait of Georgia O'Keeffe",
    "lat": 37.797447,
    "lon": -122.3987332
  },
  "8722065770": {
    "name": "Two Open Rectangles",
    "lat": 37.7977134,
    "lon": -122.3993722
  },
  "8722065771": {
    "name": "Fountain of Four Seasons",
    "lat": 37.7975498,
    "lon": -122.398866
  },
  "8722065772": {
    "name": "The Penguins",
    "lat": 37.7968665,
    "lon": -122.3982381
  },
  "8727307961": {
    "name": "Jessica Silverman",
    "lat": 37.7928438,
    "lon": -122.4061396
  },
  "8868774561": {
    "name": "Seeing Spheres",
    "lat": 37.7673052,
    "lon": -122.386419
  },
  "8878517394": {
    "name": "John McLaren Memorial Rhododendron Dell",
    "lat": 37.7721673,
    "lon": -122.4647092
  },
  "8955477967": {
    "name": "Spin",
    "lat": 37.7699033,
    "lon": -122.4595573
  },
  "8973091799": {
    "name": "Letterform Archive",
    "lat": 37.7598247,
    "lon": -122.3882443
  },
  "9010894444": {
    "name": "Grace Cathedral Labyrinth",
    "lat": 37.7921274,
    "lon": -122.412833
  },
  "9025866291": {
    "name": "Bayview Gateway",
    "lat": 37.7179292,
    "lon": -122.3979791
  },
  "9200430826": {
    "name": "Tokaido Arts",
    "lat": 37.785136,
    "lon": -122.4312168
  },
  "7459901": {
    "name": "Buena Vista Park",
    "lat": 37.7684531298077,
    "lon": -122.44168548653843
  },
  "8916752": {
    "name": "Clarion Alley",
    "lat": 37.762985650000005,
    "lon": -122.42065969999999
  },
  "16750270": {
    "name": "McCoppin Square",
    "lat": 37.74345454000001,
    "lon": -122.48012129999998
  },
  "16751151": {
    "name": "Panhandle",
    "lat": 37.771725527777775,
    "lon": -122.45119067222221
  },
  "16751737": {
    "name": "Alta Plaza Park",
    "lat": 37.79086801818182,
    "lon": -122.43774563181819
  },
  "16751838": {
    "name": "Lafayette Park",
    "lat": 37.79148363333334,
    "lon": -122.42686606666666
  },
  "16752188": {
    "name": "Bernal Heights Park",
    "lat": 37.74295330222222,
    "lon": -122.41391250666669
  },
  "16752409": {
    "name": "Holly Park",
    "lat": 37.73719008703703,
    "lon": -122.41994366666665
  },
  "16761472": {
    "name": "Marina Green",
    "lat": 37.80667316363636,
    "lon": -122.43942951818181
  },
  "18583270": {
    "name": "Washington Square Park",
    "lat": 37.80085948333333,
    "lon": -122.41020891666666
  },
  "23750468": {
    "name": "South Beach Park",
    "lat": 37.780832520588234,
    "lon": -122.38810325588234
  },
  "23750483": {
    "name": "Jackson Park",
    "lat": 37.764113990909095,
    "lon": -122.39962710909093
  },
  "23871270": {
    "name": "Mission Dolores Park",
    "lat": 37.75972906250001,
    "lon": -122.4276149625
  },
  "23881517": {
    "name": "Rolph Playground",
    "lat": 37.749869878571424,
    "lon": -122.4063205142857
  },
  "23908184": {
    "name": "Precita Park",
    "lat": 37.747079657142855,
    "lon": -122.41198798571429
  },
  "23916482": {
    "name": "Sydney G. Walton Square",
    "lat": 37.797584,
    "lon": -122.39913754
  },
  "24052083": {
    "name": "South Park",
    "lat": 37.781628204255334,
    "lon": -122.39391625531913
  },
  "24222973": {
    "name": "Transamerica Pyramid",
    "lat": 37.795205257142854,
    "lon": -122.40274891428571
  },
  "24253472": {
    "name": "Garfield Square",
    "lat": 37.75034418,
    "lon": -122.41234970000001
  },
  "24445970": {
    "name": "Potrero Del Sol Park",
    "lat": 37.75066605882353,
    "lon": -122.40522337058825
  },
  "24547823": {
    "name": "Franklin Square",
    "lat": 37.765001616666666,
    "lon": -122.40957100000001
  },
  "24547834": {
    "name": "McKinley Square",
    "lat": 37.75910859285714,
    "lon": -122.40470125714285
  },
  "24562831": {
    "name": "Balboa Park",
    "lat": 37.72466256428571,
    "lon": -122.4450638642857
  },
  "24562854": {
    "name": "Duboce Park",
    "lat": 37.76957356774193,
    "lon": -122.4338806032258
  },
  "24562872": {
    "name": "Moscone Recreation Center",
    "lat": 37.802048363636366,
    "lon": -122.43323721818183
  },
  "24562947": {
    "name": "Mount Davidson Park",
    "lat": 37.73909807333332,
    "lon": -122.45469899111114
  },
  "24563073": {
    "name": "Yerba Buena Center for the Arts Gallery",
    "lat": 37.78565858666666,
    "lon": -122.40211066666667
  },
  "24588037": {
    "name": "Asian Art Museum of San Francisco",
    "lat": 37.780338823076924,
    "lon": -122.41598043076922
  },
  "25004325": {
    "name": "Kid Power Park",
    "lat": 37.764198640000004,
    "lon": -122.4203234
  },
  "25278818": {
    "name": "Union Square",
    "lat": 37.787940028571434,
    "lon": -122.40754850000002
  },
  "25751184": {
    "name": "Levi's Plaza",
    "lat": 37.8022607117647,
    "lon": -122.40147887058824
  },
  "25759141": {
    "name": "Bill Graham Civic Auditorium",
    "lat": 37.778068402500004,
    "lon": -122.41738224999997
  },
  "25821949": {
    "name": "Jose Coronado Playground",
    "lat": 37.757649522222216,
    "lon": -122.41514002222223
  },
  "26278429": {
    "name": "Tank Hill",
    "lat": 37.7599592625,
    "lon": -122.4474969375
  },
  "27092661": {
    "name": "Grattan Playground",
    "lat": 37.762669519999996,
    "lon": -122.45139532
  },
  "27104863": {
    "name": "Ghirardelli Square",
    "lat": 37.80592722,
    "lon": -122.4231071
  },
  "27146063": {
    "name": "Embarcadero Plaza",
    "lat": 37.79515891698112,
    "lon": -122.39500054150946
  },
  "27239292": {
    "name": "Warm Water Cove Park",
    "lat": 37.754026528000004,
    "lon": -122.38310814400002
  },
  "27239372": {
    "name": "Esprit Park",
    "lat": 37.761181783333335,
    "lon": -122.39115748333332
  },
  "27369705": {
    "name": "Mission Creek Park",
    "lat": 37.771133071428565,
    "lon": -122.3964552942857
  },
  "27369817": {
    "name": "Minnesota Grove",
    "lat": 37.75365805714286,
    "lon": -122.38976319999999
  },
  "27656676": {
    "name": "China Basin Park",
    "lat": 37.776488775,
    "lon": -122.38839355000002
  },
  "27657304": {
    "name": "Juri Commons",
    "lat": 37.74938035,
    "lon": -122.4221321125
  },
  "28015862": {
    "name": "Patricia's Green",
    "lat": 37.776146159999996,
    "lon": -122.42444562
  },
  "28670189": {
    "name": "India Basin Shoreline Park",
    "lat": 37.734587552272735,
    "lon": -122.37564361590911
  },
  "28671926": {
    "name": "Heron's Head Park",
    "lat": 37.738523820930226,
    "lon": -122.37292491395347
  },
  "28689198": {
    "name": "Tulare Park",
    "lat": 37.748081451999994,
    "lon": -122.390646268
  },
  "28695389": {
    "name": "California Academy of Sciences",
    "lat": 37.76978085,
    "lon": -122.4663431875
  },
  "28716696": {
    "name": "John McLaren Park",
    "lat": 37.717220439682535,
    "lon": -122.4209685460317
  },
  "28824850": {
    "name": "Coit Tower",
    "lat": 37.802376169999995,
    "lon": -122.40584072666668
  },
  "28839856": {
    "name": "Greenwich Street Stairs",
    "lat": 37.802811809999994,
    "lon": -122.40532836
  },
  "28842443": {
    "name": "Yerba Buena Gardens",
    "lat": 37.78474917027027,
    "lon": -122.40245070000003
  },
  "28942138": {
    "name": "Penguin Island",
    "lat": 37.732490320000004,
    "lon": -122.50174469999999
  },
  "30029681": {
    "name": "Cable Car Museum",
    "lat": 37.79494944210526,
    "lon": -122.41203087894739
  },
  "30518788": {
    "name": "Filbert Steps",
    "lat": 37.80192306666667,
    "lon": -122.40505013333332
  },
  "30675038": {
    "name": "Conservatory of Flowers",
    "lat": 37.77260678947369,
    "lon": -122.46023079210526
  },
  "30675203": {
    "name": "Kezar Stadium",
    "lat": 37.766869144927526,
    "lon": -122.45607057681156
  },
  "30896932": {
    "name": "Spreckels Temple of Music",
    "lat": 37.76984595714286,
    "lon": -122.46857025714284
  },
  "30899551": {
    "name": "Music Concourse",
    "lat": 37.77057266428572,
    "lon": -122.46746003928571
  },
  "30900516": {
    "name": "Japanese Tea Garden",
    "lat": 37.77027800833333,
    "lon": -122.47025349166665
  },
  "32611483": {
    "name": "Filbert Steps Garden",
    "lat": 37.8018822125,
    "lon": -122.40501058750002
  },
  "32776564": {
    "name": "Sutro Baths",
    "lat": 37.78016076111111,
    "lon": -122.51412092222222
  },
  "32839638": {
    "name": "Aquatic Park Historic District",
    "lat": 37.80695061025641,
    "lon": -122.42303289743589
  },
  "32839686": {
    "name": "National Maritime Museum",
    "lat": 37.80640952666667,
    "lon": -122.42392312
  },
  "32857635": {
    "name": "Marini Plaza",
    "lat": 37.800470774999994,
    "lon": -122.41071595
  },
  "32858754": {
    "name": "City Lights Booksellers",
    "lat": 37.79762874,
    "lon": -122.40658665999999
  },
  "32862802": {
    "name": "Rincon Park",
    "lat": 37.791075266666674,
    "lon": -122.38960355555554
  },
  "32937727": {
    "name": "Duck Island",
    "lat": 38.195974444444445,
    "lon": -122.93373935555555
  },
  "32946958": {
    "name": "Huntington Park",
    "lat": 37.7922365,
    "lon": -122.41224131999999
  },
  "33619301": {
    "name": "Boeddeker Park",
    "lat": 37.78436360476191,
    "lon": -122.41211063809526
  },
  "34856612": {
    "name": "Kite Hill Open Space",
    "lat": 37.75837552258064,
    "lon": -122.44168968709677
  },
  "35049434": {
    "name": "Willie \"Woo Woo\" Wong Park",
    "lat": 37.79359459999999,
    "lon": -122.40714085384616
  },
  "35050562": {
    "name": "O'Farrell-Larkin Mini-Park",
    "lat": 37.78536894,
    "lon": -122.41821913999999
  },
  "35065721": {
    "name": "Joe DiMaggio Playground",
    "lat": 37.802402709999996,
    "lon": -122.41230746
  },
  "35800082": {
    "name": "Glen Canyon Park",
    "lat": 37.7397649953271,
    "lon": -122.44318826635514
  },
  "36949360": {
    "name": "Cottage Row Mini Park",
    "lat": 37.78640892,
    "lon": -122.43232458
  },
  "36950438": {
    "name": "San Francisco Fire Department Pioneer Museum",
    "lat": 37.78577446,
    "lon": -122.44682502
  },
  "36950468": {
    "name": "Baker & Broderick Mini Park",
    "lat": 37.78566264000001,
    "lon": -122.44255926000001
  },
  "37126530": {
    "name": "Greenwich Street Stairs",
    "lat": 37.8027155,
    "lon": -122.404637725
  },
  "37191966": {
    "name": "Turk-Hyde Mini Park",
    "lat": 37.78273334285715,
    "lon": -122.41598228571429
  },
  "38025784": {
    "name": "Dog Park",
    "lat": 37.7655385,
    "lon": -122.43977907142857
  },
  "38026629": {
    "name": "State Street (Corona Heights) Community Garden",
    "lat": 37.76357324000001,
    "lon": -122.43780901999999
  },
  "38224213": {
    "name": "Sunset Tunnel Park",
    "lat": 37.76631184473685,
    "lon": -122.44890214999998
  },
  "39335773": {
    "name": "Excelsior Playground",
    "lat": 37.72023358333333,
    "lon": -122.43338508333333
  },
  "39997532": {
    "name": "Portola Recreation Center",
    "lat": 37.729195399999995,
    "lon": -122.40993998000002
  },
  "40060675": {
    "name": "Candlestick Point State Recreational Area",
    "lat": 37.71432513398693,
    "lon": -122.38160781372552
  },
  "40500779": {
    "name": "Sea Lion Rocks",
    "lat": 38.93621316857143,
    "lon": -123.7302001842857
  },
  "40500783": {
    "name": "Hog Island",
    "lat": 38.197067584848476,
    "lon": -122.93516499696975
  },
  "40500791": {
    "name": "Bird Island",
    "lat": 37.82405367954545,
    "lon": -122.53712833863638
  },
  "40500803": {
    "name": "Sugarloaf Island",
    "lat": 37.70359302999999,
    "lon": -123.00301863499999
  },
  "40500806": {
    "name": "Seal Rock",
    "lat": 37.69374101923076,
    "lon": -123.00371388846153
  },
  "40500808": {
    "name": "Maintop Island",
    "lat": 37.69899364971096,
    "lon": -123.0118566294798
  },
  "40500809": {
    "name": "Southeast Farallon",
    "lat": 37.698761816056326,
    "lon": -123.00383900619723
  },
  "40500812": {
    "name": "Bird Island",
    "lat": 36.50671406538462,
    "lon": -121.94350550384617
  },
  "40500813": {
    "name": "A\u00f1o Nuevo Island",
    "lat": 37.108334340579695,
    "lon": -122.33713916521737
  },
  "40500817": {
    "name": "La Cruz Rock",
    "lat": 35.70718513225806,
    "lon": -121.31310283225807
  },
  "40500819": {
    "name": "San Martin Rock",
    "lat": 35.888391096296296,
    "lon": -121.4661643037037
  },
  "41692824": {
    "name": "San Francisco Museum of Modern Art",
    "lat": 37.78591858571429,
    "lon": -122.40056603333332
  },
  "43100742": {
    "name": "Victoria Manalo Draves Park",
    "lat": 37.77694930526315,
    "lon": -122.40594688947368
  },
  "43538880": {
    "name": "Harlan Rock",
    "lat": 36.01078513333333,
    "lon": -121.53530010833333
  },
  "43591245": {
    "name": "Lopez Rock",
    "lat": 36.02615788888889,
    "lon": -121.58044333333333
  },
  "43591256": {
    "name": "Plaskett Rock",
    "lat": 35.920506625,
    "lon": -121.478509125
  },
  "43591446": {
    "name": "Lafler Rock",
    "lat": 36.19855261111111,
    "lon": -121.72756196666667
  },
  "43591447": {
    "name": "Pfeiffer Rock",
    "lat": 36.23257041333333,
    "lon": -121.81061179333331
  },
  "46733430": {
    "name": "Pelican Rock",
    "lat": 37.073297877777776,
    "lon": -122.26433534444443
  },
  "47174862": {
    "name": "Hidden Garden Steps",
    "lat": 37.759703800000004,
    "lon": -122.473612725
  },
  "48162926": {
    "name": "Greenwich Street Stairs",
    "lat": 37.80302061428571,
    "lon": -122.40370277142857
  },
  "48162927": {
    "name": "Greenwich Street Stairs",
    "lat": 37.80293663333333,
    "lon": -122.40403136666667
  },
  "48435252": {
    "name": "Aptos Playground",
    "lat": 37.728230835714285,
    "lon": -122.46675895714286
  },
  "48435281": {
    "name": "St. Francis Wood Park",
    "lat": 37.736864785714296,
    "lon": -122.46493667142859
  },
  "48569996": {
    "name": "Mission Bay Commons",
    "lat": 37.770983062499994,
    "lon": -122.38764609999998
  },
  "52243885": {
    "name": "Rochambeau Playground",
    "lat": 37.7849435125,
    "lon": -122.48457956250002
  },
  "56645382": {
    "name": "Mission Bay Dog Park",
    "lat": 37.770747330769225,
    "lon": -122.39919506923077
  },
  "56656116": {
    "name": "Mission Creek Park",
    "lat": 37.77282946551724,
    "lon": -122.39600889655169
  },
  "60917041": {
    "name": "Piedras Blancas",
    "lat": 35.66464682777778,
    "lon": -121.2888883777778
  },
  "68705976": {
    "name": "Allyne Park",
    "lat": 37.797433588888886,
    "lon": -122.42783707777777
  },
  "68854101": {
    "name": "Cayuga Park",
    "lat": 37.713707330000005,
    "lon": -122.45049609
  },
  "68876641": {
    "name": "10th Avenue & Clement Mini Park",
    "lat": 37.781844076470584,
    "lon": -122.46801661764708
  },
  "68881688": {
    "name": "Treat Commons Community Garden",
    "lat": 37.754628733333334,
    "lon": -122.41339458333334
  },
  "68881693": {
    "name": "Parque Ni\u00f1os Unidos",
    "lat": 37.754360745454555,
    "lon": -122.41359730454546
  },
  "68882142": {
    "name": "24th & York Mini Park",
    "lat": 37.753040776923086,
    "lon": -122.40860141538464
  },
  "68883459": {
    "name": "Adam Rodgers Park",
    "lat": 37.73088850294117,
    "lon": -122.3836316764706
  },
  "68886068": {
    "name": "Alice Chalmers Playground",
    "lat": 37.709845400000006,
    "lon": -122.44681976
  },
  "69020319": {
    "name": "Little Marina Green",
    "lat": 37.80590434615385,
    "lon": -122.44814201538462
  },
  "69029501": {
    "name": "Alioto Mini Park",
    "lat": 37.75890824705883,
    "lon": -122.41822769411768
  },
  "69032470": {
    "name": "Angelo Rossi Park",
    "lat": 37.778702373076925,
    "lon": -122.45710669615384
  },
  "69060030": {
    "name": "Helen Wills Playground",
    "lat": 37.79584024285714,
    "lon": -122.42081525714285
  },
  "69200132": {
    "name": "Julius Kahn Playground",
    "lat": 37.79139392857143,
    "lon": -122.45293569285714
  },
  "72024278": {
    "name": "Broadway Tunnel West Mini Park",
    "lat": 37.79640506666667,
    "lon": -122.41746812666665
  },
  "73930763": {
    "name": "Bird Rock",
    "lat": 36.59163483589743,
    "lon": -121.96695192564101
  },
  "73933032": {
    "name": "Seal Rock",
    "lat": 36.588323821621614,
    "lon": -121.9662250864865
  },
  "82207054": {
    "name": "Fort Mason",
    "lat": 37.80717865571429,
    "lon": -122.42984362714287
  },
  "82480067": {
    "name": "Bayview Playground",
    "lat": 37.72578725,
    "lon": -122.393515925
  },
  "82480273": {
    "name": "Crocker Amazon Playground",
    "lat": 37.714644682857156,
    "lon": -122.43006138571431
  },
  "82480966": {
    "name": "Bayview Hill Park",
    "lat": 37.71574044500001,
    "lon": -122.39256773499999
  },
  "84821725": {
    "name": "Koret Quad",
    "lat": 37.768239980000004,
    "lon": -122.39203391999999
  },
  "85676254": {
    "name": "Edgehill Mountain Open Space Park",
    "lat": 37.742014950000005,
    "lon": -122.459727025
  },
  "85684053": {
    "name": "Douglass Playground",
    "lat": 37.74707691428572,
    "lon": -122.43899992857143
  },
  "85686582": {
    "name": "Dorothy W. Erskine Park",
    "lat": 37.73373433333333,
    "lon": -122.43945719999998
  },
  "85687774": {
    "name": "Noe Valley Courts Playground",
    "lat": 37.75146554,
    "lon": -122.43898698000001
  },
  "85689113": {
    "name": "Duncan-Castro Open Space",
    "lat": 37.74612055,
    "lon": -122.43346898749999
  },
  "85796801": {
    "name": "Fulton Playground",
    "lat": 37.77345075833333,
    "lon": -122.48701507499999
  },
  "85796807": {
    "name": "Richmond Playground",
    "lat": 37.78523586153847,
    "lon": -122.47812457692307
  },
  "85796808": {
    "name": "Richmond Recreation Center",
    "lat": 37.78327025714286,
    "lon": -122.47804475714285
  },
  "85880982": {
    "name": "George Christopher Playground",
    "lat": 37.743654393939394,
    "lon": -122.43968087272728
  },
  "85888165": {
    "name": "29th & Diamond Open Space",
    "lat": 37.743691381249995,
    "lon": -122.43526948749998
  },
  "85891396": {
    "name": "Walter Haas Playground",
    "lat": 37.74049513333333,
    "lon": -122.4347044
  },
  "85891397": {
    "name": "Billy Goat Hill",
    "lat": 37.74147503333334,
    "lon": -122.43312485000001
  },
  "85891868": {
    "name": "Topaz Open Space",
    "lat": 37.74164704285714,
    "lon": -122.43617537142858
  },
  "85929954": {
    "name": "White Crane Springs Community Garden",
    "lat": 37.75672482,
    "lon": -122.46323574
  },
  "86023454": {
    "name": "Fairmount Open Space",
    "lat": 37.73846794285714,
    "lon": -122.42919567142857
  },
  "86124597": {
    "name": "Argonne Playground",
    "lat": 37.77937436,
    "lon": -122.47779234
  },
  "86124617": {
    "name": "Sunset Playground",
    "lat": 37.75675974000001,
    "lon": -122.48696614
  },
  "86124618": {
    "name": "West Portal Playground",
    "lat": 37.74178688000001,
    "lon": -122.46516424
  },
  "86124624": {
    "name": "West Sunset Playground",
    "lat": 37.748913395,
    "lon": -122.49781901000001
  },
  "86303730": {
    "name": "Utah & 18th Mini Park",
    "lat": 37.762389649999996,
    "lon": -122.40600156666666
  },
  "86303734": {
    "name": "Youngblood-Coleman Playground",
    "lat": 37.73814066842106,
    "lon": -122.38408894736844
  },
  "93703754": {
    "name": "George Sterling Park",
    "lat": 37.80124356666667,
    "lon": -122.42053237777776
  },
  "99687084": {
    "name": "Presidio Heights Playground",
    "lat": 37.78842794,
    "lon": -122.44961882
  },
  "99687086": {
    "name": "Laurel Hill Playground",
    "lat": 37.78400941142858,
    "lon": -122.45059215714286
  },
  "103637554": {
    "name": "Sigmund Stern Recreation Grove",
    "lat": 37.73568519230769,
    "lon": -122.47858132307692
  },
  "103637565": {
    "name": "Pine Lake Park",
    "lat": 37.73678185977011,
    "lon": -122.48749813563217
  },
  "103637793": {
    "name": "Parkside Square",
    "lat": 37.737817612499995,
    "lon": -122.48340722500001
  },
  "103654951": {
    "name": "Robert Pender Park",
    "lat": 37.71804580555556,
    "lon": -122.4779946527778
  },
  "106952544": {
    "name": "Kelloch-Velasco Park",
    "lat": 37.70847337142857,
    "lon": -122.41318565714285
  },
  "111573499": {
    "name": "Rolph Nicol Jr Playground",
    "lat": 37.73067297272728,
    "lon": -122.48022775454547
  },
  "114151111": {
    "name": "Michelangelo Playground",
    "lat": 37.80117204285715,
    "lon": -122.41693038571428
  },
  "114151121": {
    "name": "Ina Coolbrith Park",
    "lat": 37.79819675555555,
    "lon": -122.41326790000001
  },
  "115433818": {
    "name": "Noe & Beaver Mini Park Community Garden",
    "lat": 37.76494216,
    "lon": -122.43343214000001
  },
  "116771007": {
    "name": "Potrero Hill Recreation Center",
    "lat": 37.75638288888889,
    "lon": -122.3972361111111
  },
  "118106934": {
    "name": "Contemporary Jewish Museum",
    "lat": 37.78592089166667,
    "lon": -122.40376096666667
  },
  "120479798": {
    "name": "Pioneer Log Cabin",
    "lat": 37.77082947142857,
    "lon": -122.47514172857142
  },
  "120479804": {
    "name": "Rose Garden",
    "lat": 37.77200510869565,
    "lon": -122.47143823913044
  },
  "120479810": {
    "name": "Chinese Pavillion",
    "lat": 37.76838665909091,
    "lon": -122.47362423636363
  },
  "120480164": {
    "name": "San Francisco Botanical Garden",
    "lat": 37.76772367796611,
    "lon": -122.4703184813559
  },
  "120480366": {
    "name": "Conservatory Valley",
    "lat": 37.7719550275862,
    "lon": -122.46019054827588
  },
  "120483945": {
    "name": "Queen Wilhelmina Tulip Garden",
    "lat": 37.770269479999996,
    "lon": -122.50921340000001
  },
  "128240118": {
    "name": "San Francisco Carousel",
    "lat": 37.81070871578948,
    "lon": -122.41066065789472
  },
  "128241105": {
    "name": "Golden Gate Heights Park",
    "lat": 37.75000024,
    "lon": -122.46957775714289
  },
  "128534070": {
    "name": "Pioneer Monument",
    "lat": 37.77969158571429,
    "lon": -122.41592541904762
  },
  "133399685": {
    "name": "Islais Landing",
    "lat": 37.746848135714295,
    "lon": -122.38810125714284
  },
  "137911952": {
    "name": "Page & Laguna Mini Park",
    "lat": 37.77351366,
    "lon": -122.42529379999999
  },
  "138662530": {
    "name": "Seward Mini Park",
    "lat": 37.75772255789474,
    "lon": -122.43996448947371
  },
  "147777246": {
    "name": "Mission Playground",
    "lat": 37.759372625000005,
    "lon": -122.42221425000001
  },
  "148288769": {
    "name": "Rooftop Park",
    "lat": 37.789081800000005,
    "lon": -122.39787949090909
  },
  "151183374": {
    "name": "Bridgeview Garden",
    "lat": 37.734060613333334,
    "lon": -122.39384018666665
  },
  "151183378": {
    "name": "Quesada Gardens",
    "lat": 37.733711813333336,
    "lon": -122.39207382666667
  },
  "153905784": {
    "name": "Koshland Park",
    "lat": 37.77321791999999,
    "lon": -122.42682405000001
  },
  "156681276": {
    "name": "Community Park",
    "lat": 37.76079887142858,
    "lon": -122.44039412857144
  },
  "157802623": {
    "name": "Bodega Rock",
    "lat": 38.29624864545454,
    "lon": -123.04884440000002
  },
  "157802804": {
    "name": "Arched Rock",
    "lat": 38.43259960833333,
    "lon": -123.1262856
  },
  "158602261": {
    "name": "Golden Gate Park",
    "lat": 37.7679738622449,
    "lon": -122.48190020816324
  },
  "159924616": {
    "name": "McLaren Lodge",
    "lat": 37.77185822666667,
    "lon": -122.45476640666666
  },
  "160025743": {
    "name": "Sutro Heights Park",
    "lat": 37.7777505010989,
    "lon": -122.5115770483516
  },
  "161843741": {
    "name": "Fay Park",
    "lat": 37.80296165555555,
    "lon": -122.41791645555557
  },
  "162056252": {
    "name": "Woh Hei Yuen Recreation Center",
    "lat": 37.79582591538462,
    "lon": -122.41039573076924
  },
  "162470887": {
    "name": "South Sunset Playground",
    "lat": 37.73771061111111,
    "lon": -122.4986588
  },
  "162470889": {
    "name": "Playland at 43rd Avenue",
    "lat": 37.761388977777784,
    "lon": -122.5022422111111
  },
  "162518010": {
    "name": "Muriel Leff Mini Park",
    "lat": 37.780125514285714,
    "lon": -122.46503401428572
  },
  "162518012": {
    "name": "Cabrillo Playground",
    "lat": 37.77290407142858,
    "lon": -122.49867947142856
  },
  "162518014": {
    "name": "DuPont Tennis Courts",
    "lat": 37.782651,
    "lon": -122.49077344
  },
  "162651463": {
    "name": "Merced Heights Playground",
    "lat": 37.71744658,
    "lon": -122.47035362
  },
  "162651466": {
    "name": "Ocean View Park",
    "lat": 37.715898562499994,
    "lon": -122.4573398875
  },
  "164569681": {
    "name": "Welcome Center",
    "lat": 37.80773946666667,
    "lon": -122.47487921666665
  },
  "165579428": {
    "name": "Alma",
    "lat": 37.810366344444446,
    "lon": -122.4227804111111
  },
  "165579429": {
    "name": "Eureka",
    "lat": 37.80954713750001,
    "lon": -122.42162901249998
  },
  "165579430": {
    "name": "Hercules",
    "lat": 37.80997732,
    "lon": -122.42222329333332
  },
  "165580087": {
    "name": "Eppleton Hall",
    "lat": 37.80931334444444,
    "lon": -122.42202599444444
  },
  "165585930": {
    "name": "Balclutha",
    "lat": 37.809790175,
    "lon": -122.42252065999996
  },
  "165586834": {
    "name": "C. A. Thayer",
    "lat": 37.809092087500005,
    "lon": -122.42160797499999
  },
  "165599948": {
    "name": "SS Jeremiah O'Brien",
    "lat": 37.811022179999995,
    "lon": -122.417976365
  },
  "165601339": {
    "name": "USS Pampanito",
    "lat": 37.80991558461538,
    "lon": -122.4163780846154
  },
  "165846554": {
    "name": "Tenderloin Community Garden",
    "lat": 37.780761118181815,
    "lon": -122.41678088181817
  },
  "168942987": {
    "name": "Camera Obscura",
    "lat": 37.778257849999996,
    "lon": -122.51424086666667
  },
  "171474699": {
    "name": "Halfmile Rock",
    "lat": 38.4430356,
    "lon": -123.1348221222222
  },
  "172250597": {
    "name": "Caldwell Synder Gallery",
    "lat": 37.78934556,
    "lon": -122.40598312
  },
  "172250619": {
    "name": "Langton Community Garden",
    "lat": 37.777296220000004,
    "lon": -122.40985292
  },
  "173886707": {
    "name": "American Bookbinders Museum",
    "lat": 37.78131975,
    "lon": -122.40274526666666
  },
  "174814076": {
    "name": "Statue of Christopher Columbus",
    "lat": 37.80285492,
    "lon": -122.40598707
  },
  "174826283": {
    "name": "Rincon Hill Dog Park",
    "lat": 37.786052606249996,
    "lon": -122.39038897500001
  },
  "174999601": {
    "name": "Mohatama Gandhi Statue",
    "lat": 37.79533338,
    "lon": -122.39239763999998
  },
  "175010375": {
    "name": "Cupid's Span",
    "lat": 37.7915413,
    "lon": -122.3900349
  },
  "175516006": {
    "name": "Sue Bierman Park",
    "lat": 37.79592359714286,
    "lon": -122.3956677485714
  },
  "184539480": {
    "name": "Showplace Triangle",
    "lat": 37.76653294615384,
    "lon": -122.39960453076922
  },
  "186071977": {
    "name": "Pier 24",
    "lat": 37.78943218,
    "lon": -122.38773355999999
  },
  "188964530": {
    "name": "Jane Warner Plaza",
    "lat": 37.762590585714285,
    "lon": -122.43489611428572
  },
  "188964531": {
    "name": "San Jose/Guerrero Park",
    "lat": 37.745722246153846,
    "lon": -122.42205427692306
  },
  "188964533": {
    "name": "Naples Green",
    "lat": 37.714068383333334,
    "lon": -122.43632101666668
  },
  "188964535": {
    "name": "Naples Green",
    "lat": 37.71375804,
    "lon": -122.43652422
  },
  "188972006": {
    "name": "236 Townsend Parklet",
    "lat": 37.778180979999995,
    "lon": -122.39375300000002
  },
  "188973375": {
    "name": "1315 18th Street Parklet",
    "lat": 37.762567999999995,
    "lon": -122.39598833999999
  },
  "193055100": {
    "name": "Brooks Park",
    "lat": 37.71740196451613,
    "lon": -122.46688433548385
  },
  "195274553": {
    "name": "Cayuga & Lamartine mini park",
    "lat": 37.73037833333334,
    "lon": -122.43299203333333
  },
  "199829618": {
    "name": "Pier 39",
    "lat": 37.81007363670887,
    "lon": -122.41020429746831
  },
  "205644314": {
    "name": "F.A.R.M.",
    "lat": 37.76741346,
    "lon": -122.40016106
  },
  "205655753": {
    "name": "CCA Wattis Institute for Contemporary Arts",
    "lat": 37.76526914,
    "lon": -122.40392311999999
  },
  "206662303": {
    "name": "Alhambra Theatre",
    "lat": 37.79832406999999,
    "lon": -122.42189619000001
  },
  "207811319": {
    "name": "Brannan Street Wharf",
    "lat": 37.78394939090909,
    "lon": -122.38764832727271
  },
  "215139414": {
    "name": "Pier 94 Wetlands",
    "lat": 37.74583961538462,
    "lon": -122.3756967
  },
  "217583813": {
    "name": "Little Hollywood Park",
    "lat": 37.70995471250001,
    "lon": -122.3981861625
  },
  "218917064": {
    "name": "Sunnyside Conservatory",
    "lat": 37.73199576363636,
    "lon": -122.44068542727274
  },
  "219036309": {
    "name": "Pink Triangle Memorial",
    "lat": 37.76236594,
    "lon": -122.43620126
  },
  "219166342": {
    "name": "Baden-Joost Mini Park",
    "lat": 37.73281392,
    "lon": -122.44085962000001
  },
  "222822105": {
    "name": "Coso Square",
    "lat": 37.746238790909096,
    "lon": -122.41812341818182
  },
  "224832526": {
    "name": "Ballast",
    "lat": 37.76893062,
    "lon": -122.38995522
  },
  "224832528": {
    "name": "Ballast",
    "lat": 37.768903439999995,
    "lon": -122.39045151999998
  },
  "224941774": {
    "name": "Pioneer Park",
    "lat": 37.802514192857146,
    "lon": -122.4059769857143
  },
  "225182880": {
    "name": "Corona Heights Park",
    "lat": 37.764817383606555,
    "lon": -122.43869333606557
  },
  "225526801": {
    "name": "Harvey Milk Plaza",
    "lat": 37.762280985000004,
    "lon": -122.43562120999998
  },
  "226290099": {
    "name": "Sunnyside Playground",
    "lat": 37.733661850000004,
    "lon": -122.44756773999998
  },
  "231596854": {
    "name": "Filbert Steps",
    "lat": 37.8020443375,
    "lon": -122.40380771250001
  },
  "233459930": {
    "name": "India Basin Open Space",
    "lat": 37.73299807631579,
    "lon": -122.37207817368422
  },
  "244058230": {
    "name": "Gene Friend Recreation Center",
    "lat": 37.77861231666666,
    "lon": -122.40629194166667
  },
  "251442759": {
    "name": "Dog Play Area",
    "lat": 37.76966018214285,
    "lon": -122.43254612857142
  },
  "255475804": {
    "name": "Community Garden",
    "lat": 37.745044299999996,
    "lon": -122.44106174166666
  },
  "256784864": {
    "name": "Noe Valley Town Square",
    "lat": 37.751343322222226,
    "lon": -122.42897381111112
  },
  "256993595": {
    "name": "Haas-Lilienthal House",
    "lat": 37.793291800000006,
    "lon": -122.4249519035714
  },
  "257035814": {
    "name": "Community Garden",
    "lat": 37.77727843076922,
    "lon": -122.40652976153848
  },
  "257161335": {
    "name": "Potrero Del Sol Community Garden",
    "lat": 37.74987221428571,
    "lon": -122.4051572
  },
  "257163595": {
    "name": "Michelangelo Community Garden",
    "lat": 37.80121515,
    "lon": -122.41708895000001
  },
  "257177768": {
    "name": "Arlington Community Garden",
    "lat": 37.7370453,
    "lon": -122.42641572
  },
  "257177970": {
    "name": "Bernal Heights Community Garden",
    "lat": 37.742132516666665,
    "lon": -122.41315999999999
  },
  "257178822": {
    "name": "Ogden Terrace Community Garden",
    "lat": 37.7358181,
    "lon": -122.41208814000001
  },
  "257180752": {
    "name": "Alioto Community Garden",
    "lat": 37.758851484210524,
    "lon": -122.41827959473683
  },
  "257181229": {
    "name": "Adam Rodgers Park Community Garden",
    "lat": 37.73131794166667,
    "lon": -122.38364536666666
  },
  "257182717": {
    "name": "Visitacion Valley Greenway Community Garden",
    "lat": 37.713985699999995,
    "lon": -122.40576611000002
  },
  "257182718": {
    "name": "Brooks Park Community Garden",
    "lat": 37.71722673333334,
    "lon": -122.46604765555554
  },
  "257183576": {
    "name": "Golden Gate Park Community Garden",
    "lat": 37.76612217058824,
    "lon": -122.45738862941177
  },
  "257183688": {
    "name": "Brewster-Rutledge (Miller Memorial) Community Garden",
    "lat": 37.74507246,
    "lon": -122.40713102
  },
  "257183758": {
    "name": "Wolfe Lane Community Garden",
    "lat": 37.745258477777774,
    "lon": -122.40667773333331
  },
  "257344295": {
    "name": "Agua Vista Park",
    "lat": 37.766174557142854,
    "lon": -122.38610747142857
  },
  "259774228": {
    "name": "Coleridge Mini Park",
    "lat": 37.74435198333334,
    "lon": -122.41949265
  },
  "259775230": {
    "name": "Coleridge Park",
    "lat": 37.743213818181815,
    "lon": -122.42035170909092
  },
  "259849026": {
    "name": "Argonne Community Garden",
    "lat": 37.77402561428572,
    "lon": -122.47405407142858
  },
  "261129576": {
    "name": "Midtown Terrace Park and Sutro Recreation Center",
    "lat": 37.75167615,
    "lon": -122.45546890555553
  },
  "261988292": {
    "name": "Transamerica Redwood Park",
    "lat": 37.795257199999995,
    "lon": -122.40232278571428
  },
  "263509886": {
    "name": "John Wickett Museum of Exotica",
    "lat": 37.78449488571429,
    "lon": -122.4443936047619
  },
  "266694696": {
    "name": "Woods Yard Park",
    "lat": 37.75766804,
    "lon": -122.39076694
  },
  "272711313": {
    "name": "Hippie Hill",
    "lat": 37.769823566666666,
    "lon": -122.45808417142858
  },
  "273575059": {
    "name": "Gadar Memorial",
    "lat": 37.78358227777778,
    "lon": -122.44961235555554
  },
  "278139342": {
    "name": "Green Hairstreak Corridor - Quintara Steps",
    "lat": 37.748819371428574,
    "lon": -122.47156901428572
  },
  "278139776": {
    "name": "Green Hairstreak Corridor - 14th Avenue & Pacheco",
    "lat": 37.7522668,
    "lon": -122.47078801666665
  },
  "278139938": {
    "name": "Green Hairstreak Corridor - 12th and Pacheco",
    "lat": 37.75199749047619,
    "lon": -122.46875311428573
  },
  "278140586": {
    "name": "Green Hairstreak Corridor - Aerial Steps (access point)",
    "lat": 37.75245218333333,
    "lon": -122.47058986666666
  },
  "278140657": {
    "name": "Green Hairstreak Corridor - Aloha & Lomita",
    "lat": 37.758028280000005,
    "lon": -122.47270265999998
  },
  "278140838": {
    "name": "Green Hairstreak Corridor - Mount Steps (access point)",
    "lat": 37.754231142857144,
    "lon": -122.47127504285713
  },
  "281243360": {
    "name": "Santa Rosa",
    "lat": 37.79820822941177,
    "lon": -122.3954091294118
  },
  "281243626": {
    "name": "San Francisco Belle",
    "lat": 37.79891608666666,
    "lon": -122.39436701999996
  },
  "284764947": {
    "name": "Civic Center Plaza",
    "lat": 37.779555977777775,
    "lon": -122.41770049999998
  },
  "287910488": {
    "name": "South American Tropical Rainforest & Aviary",
    "lat": 37.73413911111111,
    "lon": -122.50101942222221
  },
  "287921407": {
    "name": "Dutch Windmill",
    "lat": 37.77043743333333,
    "lon": -122.50941864074076
  },
  "287927001": {
    "name": "Anglers Lodge",
    "lat": 37.76800882083334,
    "lon": -122.49657498333333
  },
  "287927026": {
    "name": "Murphy Windmill",
    "lat": 37.76500882222222,
    "lon": -122.508686
  },
  "288305388": {
    "name": "Legion of Honor",
    "lat": 37.784509378571435,
    "lon": -122.50078873928574
  },
  "288340246": {
    "name": "Walt Disney Family Museum",
    "lat": 37.801377071999994,
    "lon": -122.458700356
  },
  "288365549": {
    "name": "Greater Farallones Marine Sanctuary Visitor Center",
    "lat": 37.80543429200001,
    "lon": -122.46703554000001
  },
  "288371295": {
    "name": "Palace of Fine Arts",
    "lat": 37.802921530481285,
    "lon": -122.4484012037434
  },
  "288396169": {
    "name": "Aquarium of the Bay",
    "lat": 37.808778847499994,
    "lon": -122.4092887225
  },
  "288473102": {
    "name": "Ripley's Believe it or Not",
    "lat": 37.808044375,
    "lon": -122.41539644166664
  },
  "288716388": {
    "name": "Children's Creativity Museum",
    "lat": 37.7830758375,
    "lon": -122.40171587500005
  },
  "290533574": {
    "name": "Matthew J. Boxer Soccer Stadium",
    "lat": 37.72619683809525,
    "lon": -122.44497391428574
  },
  "295143237": {
    "name": "Angel Island State Park",
    "lat": 37.861728698484846,
    "lon": -122.43476956843439
  },
  "306787829": {
    "name": "Starr King Open Space",
    "lat": 37.75360759583334,
    "lon": -122.40004181250002
  },
  "310027918": {
    "name": "McCoppin Hub",
    "lat": 37.77162141666667,
    "lon": -122.42286975000002
  },
  "330694199": {
    "name": "Palou Community Garden",
    "lat": 37.736760744444446,
    "lon": -122.39526387777778
  },
  "330694868": {
    "name": "Latona Community Garden",
    "lat": 37.73097283999999,
    "lon": -122.39261266000001
  },
  "330695712": {
    "name": "Palou Phelps Mini Park",
    "lat": 37.73565617777778,
    "lon": -122.39502503888889
  },
  "330697238": {
    "name": "Florence Fang Asian Community Garden",
    "lat": 37.73070221538462,
    "lon": -122.39588475384615
  },
  "338698526": {
    "name": "Garden of Remembrance",
    "lat": 37.722475286206894,
    "lon": -122.47914873448276
  },
  "338698713": {
    "name": "HSS Courtyard",
    "lat": 37.72211828125,
    "lon": -122.476391890625
  },
  "338699344": {
    "name": "Habitat Garden",
    "lat": 37.72596431666667,
    "lon": -122.4817852
  },
  "338699345": {
    "name": "Habitat Garden",
    "lat": 37.725880599999996,
    "lon": -122.48159139999999
  },
  "338699346": {
    "name": "Habitat Garden",
    "lat": 37.72600576666667,
    "lon": -122.481883
  },
  "338699347": {
    "name": "Habitat Garden",
    "lat": 37.72604188333333,
    "lon": -122.48196753333333
  },
  "349439374": {
    "name": "Systems",
    "lat": 37.77139761764706,
    "lon": -122.39969352941176
  },
  "352690312": {
    "name": "Mariposa Park",
    "lat": 37.764638757142855,
    "lon": -122.3916842
  },
  "353551814": {
    "name": "Murphy Playground",
    "lat": 37.75184349999999,
    "lon": -122.46486562222223
  },
  "363667951": {
    "name": "Alice Fong Yu School Garden",
    "lat": 37.758500363636365,
    "lon": -122.4694832909091
  },
  "367545863": {
    "name": "Shakespeare Garden",
    "lat": 37.76890478333333,
    "lon": -122.4669875
  },
  "369601560": {
    "name": "Benches Garden",
    "lat": 37.76192418333334,
    "lon": -122.40543763333335
  },
  "369601721": {
    "name": "Community Garden",
    "lat": 37.76381597142858,
    "lon": -122.40027769999999
  },
  "370570059": {
    "name": "Valley Ford Franklin School Road",
    "lat": 38.3098192,
    "lon": -122.93589804999999
  },
  "370672707": {
    "name": "Golden Gate Bridge",
    "lat": 37.82238516363636,
    "lon": -122.47889907727276
  },
  "375333476": {
    "name": "Walter Haas Dog Park",
    "lat": 37.74045668709678,
    "lon": -122.43537422903226
  },
  "375747149": {
    "name": "Mission Bay Childrens Park",
    "lat": 37.772167585714286,
    "lon": -122.39265417142857
  },
  "381074858": {
    "name": "Bernal Recreation Center",
    "lat": 37.738397559999996,
    "lon": -122.41623244000002
  },
  "382085366": {
    "name": "Progress Park",
    "lat": 37.753730133333335,
    "lon": -122.39115817777777
  },
  "382085619": {
    "name": "Progress Park",
    "lat": 37.75313606,
    "lon": -122.3910815
  },
  "382796784": {
    "name": "AFRICAN REGION",
    "lat": 37.732090221568626,
    "lon": -122.50513447647062
  },
  "382796785": {
    "name": "Gorilla Preserve",
    "lat": 37.73150365789474,
    "lon": -122.50456009473682
  },
  "382796787": {
    "name": "African Aviary",
    "lat": 37.7317845111111,
    "lon": -122.50458661111111
  },
  "382796788": {
    "name": "Mandrill",
    "lat": 37.732500505,
    "lon": -122.50372784499999
  },
  "382796789": {
    "name": "Patas Monkey",
    "lat": 37.732432955555545,
    "lon": -122.50333083333334
  },
  "382796793": {
    "name": "African Savana",
    "lat": 37.73265404339624,
    "lon": -122.505055654717
  },
  "382798029": {
    "name": "Lemur Forest",
    "lat": 37.73296297446809,
    "lon": -122.5041564787234
  },
  "382798030": {
    "name": "Family Farm",
    "lat": 37.734736158064514,
    "lon": -122.50485779354838
  },
  "382798031": {
    "name": "Meerkat",
    "lat": 37.73434515,
    "lon": -122.50390338749999
  },
  "382798032": {
    "name": "Prairie Dog",
    "lat": 37.734203581818186,
    "lon": -122.50393993636364
  },
  "382798035": {
    "name": "Flamingo",
    "lat": 37.733519288888886,
    "lon": -122.50322112222221
  },
  "382801491": {
    "name": "Red Panda Treehouse",
    "lat": 37.7338898625,
    "lon": -122.504389
  },
  "382803059": {
    "name": "Chimpanzee",
    "lat": 37.73302191304347,
    "lon": -122.50291828260869
  },
  "382803073": {
    "name": "River Otter",
    "lat": 37.732358723529416,
    "lon": -122.50232584117646
  },
  "382805054": {
    "name": "Grizzly Gulch",
    "lat": 37.73282751290322,
    "lon": -122.49877084838711
  },
  "382805057": {
    "name": "Eagle Island",
    "lat": 37.732733616666664,
    "lon": -122.49914045555556
  },
  "382813682": {
    "name": "Puente al Sur",
    "lat": 37.73323776315789,
    "lon": -122.50082948421054
  },
  "382813683": {
    "name": "Chacoan Peccary",
    "lat": 37.73260599411765,
    "lon": -122.49966928823532
  },
  "382816207": {
    "name": "Greenie's Conservation Corner",
    "lat": 37.73221009230769,
    "lon": -122.5026791076923
  },
  "382816208": {
    "name": "Snow Leopard",
    "lat": 37.732085187500005,
    "lon": -122.50123789999999
  },
  "382818430": {
    "name": "Black Rhino",
    "lat": 37.73147712222222,
    "lon": -122.50174245
  },
  "382818432": {
    "name": "Hippo",
    "lat": 37.73157987692308,
    "lon": -122.50129286153846
  },
  "382818435": {
    "name": "Bongo",
    "lat": 37.731488071428565,
    "lon": -122.50226654999999
  },
  "382822565": {
    "name": "Hornbill",
    "lat": 37.733554741666666,
    "lon": -122.50212738333335
  },
  "382822566": {
    "name": "Pelican Beach",
    "lat": 37.73388936666666,
    "lon": -122.5021351111111
  },
  "382822567": {
    "name": "Cassowary",
    "lat": 37.73475479090909,
    "lon": -122.50184620909089
  },
  "382822568": {
    "name": "Australian WalkAbout",
    "lat": 37.734897915,
    "lon": -122.50236581499999
  },
  "382822569": {
    "name": "Wolverine",
    "lat": 37.73302595555556,
    "lon": -122.50171852222223
  },
  "382826072": {
    "name": "Prehistoric Garden",
    "lat": 37.734077799999994,
    "lon": -122.50120176666665
  },
  "382826075": {
    "name": "Anteater",
    "lat": 37.73231467777779,
    "lon": -122.50087512222224
  },
  "382826076": {
    "name": "Bobcat",
    "lat": 37.73219377,
    "lon": -122.50084145999999
  },
  "386536596": {
    "name": "Fulton St Parklet",
    "lat": 37.776890980000005,
    "lon": -122.43850542
  },
  "386536597": {
    "name": "Cafe Mojo Parklet",
    "lat": 37.775577299999995,
    "lon": -122.43803367999999
  },
  "389128196": {
    "name": "Golden Gate Park Dog Training Area",
    "lat": 37.7711431,
    "lon": -122.49952386
  },
  "389247006": {
    "name": "Randolph & Bright Mini Park",
    "lat": 37.71454813333333,
    "lon": -122.46371563333334
  },
  "389247009": {
    "name": "Lessing & Sears Mini Park",
    "lat": 37.70861195714286,
    "lon": -122.45536825714287
  },
  "389262420": {
    "name": "Visitacion Valley Playground",
    "lat": 37.71250812,
    "lon": -122.4090536
  },
  "389262854": {
    "name": "Visitacion Valley Greenway",
    "lat": 37.714829544444434,
    "lon": -122.40589348888888
  },
  "389991180": {
    "name": "Hayes Valley Playground",
    "lat": 37.77611701666667,
    "lon": -122.42738896666667
  },
  "393263687": {
    "name": "Saint Mary's Playground",
    "lat": 37.7335180125,
    "lon": -122.42149185625
  },
  "393275322": {
    "name": "Jeanne d\u2019Arc",
    "lat": 37.7846965,
    "lon": -122.49983565999999
  },
  "393275338": {
    "name": "El Cid Campeador",
    "lat": 37.78521452,
    "lon": -122.50041444000001
  },
  "396637684": {
    "name": "Lakeview and Ashton Mini Park",
    "lat": 37.718136357894736,
    "lon": -122.46266966842104
  },
  "400948942": {
    "name": "La Playa Park",
    "lat": 37.76058004,
    "lon": -122.50930218
  },
  "401354283": {
    "name": "Mountain Lake Park",
    "lat": 37.78702382631579,
    "lon": -122.47156486315788
  },
  "401508551": {
    "name": "Miraloma Playground",
    "lat": 37.73850958571429,
    "lon": -122.44939295238096
  },
  "402061421": {
    "name": "Grand View Park",
    "lat": 37.75646790895522,
    "lon": -122.47193322537312
  },
  "402100693": {
    "name": "Dahlia Garden",
    "lat": 37.77249496666666,
    "lon": -122.45925007500001
  },
  "402111597": {
    "name": "Lombard Street",
    "lat": 37.802046736363636,
    "lon": -122.41945580000001
  },
  "402978882": {
    "name": "Larsen Park",
    "lat": 37.739667659999995,
    "lon": -122.47594441999999
  },
  "404847043": {
    "name": "Lake Merced Park",
    "lat": 37.72179148878509,
    "lon": -122.49307032056076
  },
  "404851503": {
    "name": "Fort Funston",
    "lat": 37.7208969537037,
    "lon": -122.50250428981481
  },
  "404862894": {
    "name": "Lions & Tiger Yards",
    "lat": 37.73193409565217,
    "lon": -122.5017600695652
  },
  "412695135": {
    "name": "Emerald Park",
    "lat": 37.78678126842105,
    "lon": -122.39159032105262
  },
  "414033716": {
    "name": "Hilltop Park",
    "lat": 37.733063459259256,
    "lon": -122.38334507037034
  },
  "414034499": {
    "name": "Flights of Fancy",
    "lat": 37.730714575,
    "lon": -122.37401670000001
  },
  "414035066": {
    "name": "Mansell Parkway",
    "lat": 37.72062066666666,
    "lon": -122.4046548222222
  },
  "414035525": {
    "name": "Shoreview Park",
    "lat": 37.731856192857144,
    "lon": -122.38117180714285
  },
  "414887522": {
    "name": "In Chan Kaajal Park",
    "lat": 37.76394690714286,
    "lon": -122.41580172142856
  },
  "417184097": {
    "name": "Joby's Dog Run",
    "lat": 37.74251395714285,
    "lon": -122.42730232857143
  },
  "427290243": {
    "name": "Off-leash Dog Area",
    "lat": 37.715083741176464,
    "lon": -122.42761845294118
  },
  "427290255": {
    "name": "Crocker Amazon Community Garden",
    "lat": 37.71318873333334,
    "lon": -122.43302690000002
  },
  "429792025": {
    "name": "Tara Street Park",
    "lat": 37.721235613333334,
    "lon": -122.44859514666668
  },
  "430142467": {
    "name": "Wilde Overlook Tower",
    "lat": 37.71875361000001,
    "lon": -122.40992145
  },
  "432386653": {
    "name": "Athens Avalon Greens Terace",
    "lat": 37.72500834444445,
    "lon": -122.42597676666666
  },
  "436801947": {
    "name": "North Farallon Islands State Marine Reserve",
    "lat": 37.78688738461539,
    "lon": -123.03848798461543
  },
  "436802591": {
    "name": "Southeast Farallon Island State Marine Reserve",
    "lat": 37.69069452,
    "lon": -123.01702473999998
  },
  "436802594": {
    "name": "Southeast Farallon Island State Marine Conservation Area",
    "lat": 37.673721015,
    "lon": -123.04745545499998
  },
  "443135450": {
    "name": "Bayview Gateway",
    "lat": 37.74649452352941,
    "lon": -122.38674924117646
  },
  "444230154": {
    "name": "Hamon Tower",
    "lat": 37.7720109111111,
    "lon": -122.46831914444442
  },
  "446183018": {
    "name": "Parklab",
    "lat": 37.77080143846154,
    "lon": -122.391272
  },
  "446717984": {
    "name": "Jack Early Park",
    "lat": 37.804858687499994,
    "lon": -122.40821545
  },
  "458217887": {
    "name": "parking lot",
    "lat": 37.774189650000004,
    "lon": -122.42374884999998
  },
  "461786910": {
    "name": "Mission Valencia Plaza",
    "lat": 37.74557857777778,
    "lon": -122.4201306
  },
  "462144467": {
    "name": "Mullen & Peralta Mini Park",
    "lat": 37.74613513333333,
    "lon": -122.40884627333334
  },
  "462197213": {
    "name": "Arched Rock",
    "lat": 38.36959008125,
    "lon": -123.07510135312498
  },
  "469293906": {
    "name": "Kelloch-Velasco Park",
    "lat": 37.70862398,
    "lon": -122.41326933999999
  },
  "471737901": {
    "name": "Lombard Street",
    "lat": 37.80210982727272,
    "lon": -122.41871652727274
  },
  "476267889": {
    "name": "Golden Gate Park Polo Field and Stadium",
    "lat": 37.76816063913043,
    "lon": -122.49279932318841
  },
  "479424639": {
    "name": "Bosworth Street Open Space",
    "lat": 37.73452963,
    "lon": -122.4375752
  },
  "480114806": {
    "name": "Adah's Stairway Garden",
    "lat": 37.77009862,
    "lon": -122.43894444
  },
  "480149175": {
    "name": "Buena Vista Dog Run",
    "lat": 37.76891144736842,
    "lon": -122.44254163157893
  },
  "480159320": {
    "name": "Cow Hollow Playground",
    "lat": 37.797346530000006,
    "lon": -122.44490088
  },
  "480966708": {
    "name": "Greyhound Rock",
    "lat": 37.07795973636364,
    "lon": -122.26782805454545
  },
  "534610947": {
    "name": "Tunnel Top Park",
    "lat": 37.7521395,
    "lon": -122.392955325
  },
  "534677321": {
    "name": "Daggett Park",
    "lat": 37.76690345714286,
    "lon": -122.39627154285715
  },
  "545363150": {
    "name": "Fillmore & Turk Mini Park",
    "lat": 37.78022,
    "lon": -122.43168424599999
  },
  "545408838": {
    "name": "Raymond Kimbell Playground",
    "lat": 37.78312548965517,
    "lon": -122.43547940689653
  },
  "546510348": {
    "name": "Japan Town Peace Plaza",
    "lat": 37.78511414390243,
    "lon": -122.42980643170726
  },
  "546784745": {
    "name": "Golden Gate & Steiner Mini Park",
    "lat": 37.7796427375,
    "lon": -122.43349485
  },
  "548072819": {
    "name": "Gateway Community Garden",
    "lat": 37.783089600000004,
    "lon": -122.43606308888889
  },
  "552549335": {
    "name": "Mary Ellen Pleasant Memorial Park",
    "lat": 37.787527000000004,
    "lon": -122.4269207
  },
  "558731934": {
    "name": "San Francisco Ferry Building",
    "lat": 37.79548582105263,
    "lon": -122.39344486842104
  },
  "562137946": {
    "name": "(de)Appropriation Project Parklet",
    "lat": 37.75288456,
    "lon": -122.42085414
  },
  "562137989": {
    "name": "Ciencia Publica Parklet",
    "lat": 37.753096240000005,
    "lon": -122.42067988
  },
  "562137990": {
    "name": "Luna Rienne Art Gallery Parklet",
    "lat": 37.755321679999994,
    "lon": -122.42154309999998
  },
  "562137991": {
    "name": "Museum of Craft and Design Parklet",
    "lat": 37.75682687999999,
    "lon": -122.38804098
  },
  "562137992": {
    "name": "Reveille Coffee Parklet",
    "lat": 37.79730254,
    "lon": -122.40545086000002
  },
  "562137993": {
    "name": "Simple Pleasures Parklet",
    "lat": 37.77583605000001,
    "lon": -122.49581332
  },
  "565996157": {
    "name": "Coleman Bluff",
    "lat": 37.72675580833334,
    "lon": -122.3667411
  },
  "570773694": {
    "name": "Redwood Grove",
    "lat": 37.77206375555555,
    "lon": -122.40382976666668
  },
  "579646390": {
    "name": "Chase Center",
    "lat": 37.767921589062496,
    "lon": -122.3874747484375
  },
  "580080143": {
    "name": "East Garden",
    "lat": 37.78555772222223,
    "lon": -122.40163094444445
  },
  "585640043": {
    "name": "Tenderloin Children's Playground",
    "lat": 37.78480432,
    "lon": -122.41529331
  },
  "585983823": {
    "name": "Ferry Park",
    "lat": 37.79589081666666,
    "lon": -122.39761004999998
  },
  "605504214": {
    "name": "Rossi Playground Edward St Annex",
    "lat": 37.77784765714286,
    "lon": -122.45777835714286
  },
  "606005383": {
    "name": "Grace Marchant Garden",
    "lat": 37.80203175555556,
    "lon": -122.4041522
  },
  "609637441": {
    "name": "Sunset Community Garden",
    "lat": 37.74935902,
    "lon": -122.496189
  },
  "637266043": {
    "name": "Shoreline Highway",
    "lat": 38.064723650000005,
    "lon": -122.80514105
  },
  "637630191": {
    "name": "Sail Rock",
    "lat": 38.83092276,
    "lon": -123.634956064
  },
  "641734127": {
    "name": "UCSF Mission Bay Park",
    "lat": 37.76885131111112,
    "lon": -122.39214899999999
  },
  "651657468": {
    "name": "Waterfront Plaza",
    "lat": 37.80596260666667,
    "lon": -122.40631414
  },
  "675572533": {
    "name": "La Playa Park",
    "lat": 37.75966794,
    "lon": -122.50922992000001
  },
  "681436080": {
    "name": "Margaret S. Hayward Playground",
    "lat": 37.78091800769231,
    "lon": -122.4256329923077
  },
  "681436082": {
    "name": "Jefferson Square",
    "lat": 37.78168874,
    "lon": -122.42595730000001
  },
  "690982876": {
    "name": "Eureka Valley Recreation Center",
    "lat": 37.75979594210526,
    "lon": -122.43666751578947
  },
  "692740286": {
    "name": "Gilman Playground",
    "lat": 37.71708512857143,
    "lon": -122.38788567142858
  },
  "697246134": {
    "name": "Kathleen\u2019s Corner",
    "lat": 37.774591799999996,
    "lon": -122.45481385999999
  },
  "698078900": {
    "name": "Alcatraz Island",
    "lat": 37.82680530984848,
    "lon": -122.42323503257572
  },
  "701964766": {
    "name": "Argonne School Edible Garden and Outdoor Classroom",
    "lat": 37.77493578333334,
    "lon": -122.47642444999998
  },
  "705001032": {
    "name": "Three Gems",
    "lat": 37.77108142777778,
    "lon": -122.46958927777776
  },
  "705003094": {
    "name": "Drawn Stone",
    "lat": 37.771444,
    "lon": -122.4682286
  },
  "705309578": {
    "name": "Randall Museum",
    "lat": 37.76440522222222,
    "lon": -122.43818205333335
  },
  "710726117": {
    "name": "Prentiss Mini-Park",
    "lat": 37.740235059999996,
    "lon": -122.41191652
  },
  "719036701": {
    "name": "Geneva Community Garden",
    "lat": 37.72049152,
    "lon": -122.44556642
  },
  "745183964": {
    "name": "Alamo Square",
    "lat": 37.77617497391305,
    "lon": -122.43499731304347
  },
  "760887313": {
    "name": "Dogpatch Arts Plaza",
    "lat": 37.761613149999995,
    "lon": -122.39177540000001
  },
  "772905204": {
    "name": "Francisco Park",
    "lat": 37.80390179285714,
    "lon": -122.42120516428572
  },
  "773826062": {
    "name": "Sifaka",
    "lat": 37.732762814285714,
    "lon": -122.50331997142858
  },
  "817970857": {
    "name": "Frank Cresci Plaza",
    "lat": 37.80718665,
    "lon": -122.415403075
  },
  "817970858": {
    "name": "Molinari Mana Park",
    "lat": 37.80010916,
    "lon": -122.41530761999998
  },
  "827232079": {
    "name": "15th Avenue Steps",
    "lat": 37.759629340000004,
    "lon": -122.4723669
  },
  "853562207": {
    "name": "Crane Cove Park",
    "lat": 37.763047479310345,
    "lon": -122.38706704827588
  },
  "860830715": {
    "name": "Baby Blues",
    "lat": 37.74680474,
    "lon": -122.41888514
  },
  "896246128": {
    "name": "PG&E Plaza",
    "lat": 37.7875144,
    "lon": -122.39397156
  },
  "908908429": {
    "name": "Avalon Dogpatch Dog Park",
    "lat": 37.76033174,
    "lon": -122.39188114000001
  },
  "909411961": {
    "name": "SoMa West Dog Park",
    "lat": 37.77027377,
    "lon": -122.42198838000002
  },
  "940067365": {
    "name": "Filbert Steps",
    "lat": 37.8018134,
    "lon": -122.40551816666665
  },
  "940067366": {
    "name": "Filbert Steps",
    "lat": 37.80185543333333,
    "lon": -122.40536393333333
  },
  "940067367": {
    "name": "Filbert Steps",
    "lat": 37.8019527,
    "lon": -122.40474900000001
  },
  "940067368": {
    "name": "Filbert Steps",
    "lat": 37.801959333333336,
    "lon": -122.40462120000001
  },
  "940067369": {
    "name": "Filbert Steps",
    "lat": 37.801932199999996,
    "lon": -122.40451189999999
  },
  "941913562": {
    "name": "War Memorial Court",
    "lat": 37.779060177272726,
    "lon": -122.42096937727274
  },
  "959594547": {
    "name": "Plot to Grow Art",
    "lat": 37.766707675,
    "lon": -122.45820235
  },
  "966201482": {
    "name": "Lombard Street",
    "lat": 37.802116901538454,
    "lon": -122.41870339923078
  },
  "966869142": {
    "name": "Joan's Oasis",
    "lat": 37.72449517,
    "lon": -122.42042129000001
  },
  "967119898": {
    "name": "Daggett Plaza Dog Run",
    "lat": 37.76706366923077,
    "lon": -122.39604939230769
  },
  "970291481": {
    "name": "Clarion Alley",
    "lat": 37.763046450000004,
    "lon": -122.419556
  },
  "990987745": {
    "name": "Oasis at 50 Jones",
    "lat": 37.781723718181816,
    "lon": -122.41174414545453
  },
  "990987746": {
    "name": "50 Jones Dog Jog",
    "lat": 37.78162408,
    "lon": -122.41193143999999
  },
  "998479624": {
    "name": "Little Saigon",
    "lat": 37.7840528,
    "lon": -122.41772074000001
  },
  "1652482": {
    "name": "De Young Museum",
    "lat": 37.77152365357143,
    "lon": -122.46858332714285
  },
  "1735771": {
    "name": "United Nations Plaza",
    "lat": 37.78002043708333,
    "lon": -122.41412661722222
  },
  "2142026": {
    "name": "Lands End",
    "lat": 37.783281170789515,
    "lon": -122.50633930550732
  },
  "2173408": {
    "name": "China Beach",
    "lat": 37.788096219575756,
    "lon": -122.4910873691515
  },
  "3307684": {
    "name": "Mount Sutro Open Space Reserve",
    "lat": 37.75870353655174,
    "lon": -122.45845434413792
  },
  "3830941": {
    "name": "Sea Change",
    "lat": 37.78094758652005,
    "lon": -122.38805704656278
  },
  "3947664": {
    "name": "Farallon Islands National Wildlife Refuge",
    "lat": 37.7467074965844,
    "lon": -123.07126775051256
  },
  "5695997": {
    "name": "Asian Rhino",
    "lat": 37.73272935999999,
    "lon": -122.50215169999998
  },
  "6061042": {
    "name": "Saint Mary's Park",
    "lat": 37.73385264159091,
    "lon": -122.42024423090909
  },
  "6228702": {
    "name": "Farallon Wilderness Area",
    "lat": 37.74862532380552,
    "lon": -123.07396490028518
  },
  "7325085": {
    "name": "Oracle Park",
    "lat": 37.77858541037838,
    "lon": -122.38961029405402
  },
  "7330762": {
    "name": "Oracle Park",
    "lat": 37.77814839901151,
    "lon": -122.38977868858233
  },
  "7533494": {
    "name": "Living Roof",
    "lat": 37.769833356825394,
    "lon": -122.46629160253968
  },
  "7776399": {
    "name": "Golden White House",
    "lat": 37.802550942857145,
    "lon": -122.44652572857144
  },
  "8346137": {
    "name": "Presidio",
    "lat": 37.802094964711166,
    "lon": -122.47044305962343
  },
  "8510184": {
    "name": "Lincoln Park",
    "lat": 37.783798441310346,
    "lon": -122.49570019103449
  },
  "8524888": {
    "name": "Salesforce Park",
    "lat": 37.789326174787945,
    "lon": -122.39659909910839
  },
  "8838432": {
    "name": "Greater Farallones National Marine Sanctuary",
    "lat": 38.23795162595221,
    "lon": -123.12031280286162
  },
  "8841133": {
    "name": "Monterey Bay National Marine Sanctuary",
    "lat": 36.62455257997751,
    "lon": -121.99912285357851
  }
}