{"CAoSLEFGMVFpcE9heDl5WjRMQ2JhQnZjaC1KRzlrVTgyMzVIaWVrUnA2Mk82NnVp": {"osm_id": "65328703", "name": "Dragon's Gate", "lat": 37.79058, "lon": -122.40554}, "CAoSK0FGMVFpcE9yMFg0U3VaLXZRM2VCdDFkYjNaNWFRLVhsQ1JFd1JpSi1GTTg.": {"osm_id": "258660872", "name": "Phillip Burton", "lat": 37.80508951150801, "lon": -122.4295521900058}, "CAoSLEFGMVFpcE9fQi1Ka0Y2OHpIRWZubzJDc3pXQXN1Y1d6MVRMTE5KLTdwcHNN": {"osm_id": "317077257", "name": "Oracle Park valet bicycle parking", "lat": 37.777698, "lon": -122.389518}, "CAoSK0FGMVFpcE5XTklVc2x2cXhuUnhYeWhUcjhnQjA4UGpIbVVaSUdGRUNWdk0.": {"osm_id": "317081601", "name": "California Society of Pioneers Museum and Library", "lat": 37.7999001, "lon": -122.4595566}, "CAoSLEFGMVFpcE44Vl93YjZOcnNNWk03Z1VDa05xTEl3UnQyUmFZNk1hR29LbXh3": {"osm_id": "332786657", "name": "Inspiration Point", "lat": 37.7922107, "lon": -122.4582831}, "CAoSLEFGMVFpcE83OGhyWTVsbjlyX0ozQjFtZ09zSDF2YTVOQXNhdUEzU2hGQUpL": {"osm_id": "358803503", "name": "Alamo Square Historic District", "lat": 37.7771019, "lon": -122.4348639}, "CAoSLEFGMVFpcFBIdVNvTDZfM1ZYcmJjZ3ItZGNMbVFnY0RESlBaaW14X216dTd3": {"osm_id": "358803650", "name": "Jackson Square Historic District", "lat": 37.7968712, "lon": -122.4029298}, "bvGa3-kDnXG_PuKY8vXTJg": {"osm_id": "358803668", "name": "Lake Merced Sports Center", "lat": 37.7255565784621, "lon": -122.4991992303158}, "CAoSLEFGMVFpcE1NY0Y0VUVYclE1bmtqd1ZxeE9JNE05Qm84N0xvU043bnYwRklF": {"osm_id": "358803681", "name": "Louis Sutter Playground", "lat": 37.7228822, "lon": -122.4138092}, "RRRqWx6LZIBjacGdrc3vqA": {"osm_id": "358803706", "name": "Milton Myer Recreation Center", "lat": 37.72957425934813, "lon": -122.3770751467049}, "7U_XHZECfP3K-7wOMONPsw": {"osm_id": "358803711", "name": "Mission Community Recreation Center", "lat": 37.7583240298579, "lon": -122.4124653711377}, "CAoSLEFGMVFpcE9oRXBKUDI3dnlzaUNpVFJ5QjNpN2pDeDRvLUVMbXdqZS11dlFO": {"osm_id": "358804665", "name": "Potrero Hill Recreation Center", "lat": 37.7561624, "lon": -122.3972493}, "Fu-BOus-vxlrGCCjnojSCg": {"osm_id": "358804692", "name": "Rolph-Nicol Playground", "lat": 37.73116618627838, "lon": -122.4802746153399}, "V90zvabgg9TgTM2ZB1GcJA": {"osm_id": "358804951", "name": "Upper Noe Recreation Center", "lat": 37.74202116639744, "lon": -122.4277940664766}, "CAoSLEFGMVFpcE9QeDNHcUprM3AtRTlmQmRxYTkzQVUtdS04TGtDcG1hNlRRWFB6": {"osm_id": "358805377", "name": "Aquatic Park Historic District", "lat": 37.8067337, "lon": -122.4229972}, "CAoSLEFGMVFpcE9kbWFWNGdQMEh1R0J4TlJVWGlFZG51UmFrNzltOWI4d0RrcHdV": {"osm_id": "358805379", "name": "Bush Street-Cottage Row Historic District", "lat": 37.7868423, "lon": -122.4322891}, "DC8Ls8UoJU8O5R1_nSfSOQ": {"osm_id": "358805401", "name": "Russian Hill-Vallejo Street Crest Historic District", "lat": 37.79771196913106, "lon": -122.4148074443662}, "CAoSLEFGMVFpcE1IS1Z3c1E4VDNUOUdhUTEtZl9WWWVQLURWemtITnU0bTR3akVF": {"osm_id": "358838556", "name": "Presidio of San Francisco", "lat": 37.80000388888889, "lon": -122.4636588888889}, "CAoSLEFGMVFpcE9TSzYzTWh4NFBxektuZ2xSM3NCVWZsOHE5bTdIVWp5aFp5ZHJn": {"osm_id": "358849982", "name": "San Francisco Maritime National Historical Park", "lat": 37.8064882, "lon": -122.423255}, "CAoSLEFGMVFpcFAwU1VhVWVRZ2tDaUZ3WENiY1N0Mk9Ybm1WaUpzMzNJZDdkaUhz": {"osm_id": "358857211", "name": "Negoesco Stadium", "lat": 37.7765632, "lon": -122.4539358}, "CAoSLEFGMVFpcE1VdjZLY2dER2VNd2VrSG00Wl9WMjF3OFBoYTczbUxYMTdwcE5Z": {"osm_id": "368166365", "name": "Mus\u00e9e M\u00e9canique", "lat": 37.80929802596, "lon": -122.41575153523}, "CAoSLEFGMVFpcE5TTDdiU3c5eTBPekdZajRJejVyOGVHWTR1X2Y5aEdPNFJlQUst": {"osm_id": "368173914", "name": "Steinhart Aquarium", "lat": 37.7694435, "lon": -122.4661102}, "M3Gi86RTQCKWkfFJHTML4w": {"osm_id": "368173937", "name": "San Francisco International Toy Museum", "lat": 37.80717201306338, "lon": -122.4189060263443}, "CAoSLEFGMVFpcE9FNjdNelp4Y0RILTkxNmdaQ24xQ2NiNXBPaExSZUk2aHpmaE15": {"osm_id": "368173940", "name": "Museo Italo Americano", "lat": 37.7994564495832, "lon": -122.41028415762}, "CAoSLEFGMVFpcE5ZQTlBNEJ5RFMzVDg3cE1Kbm54dVVmOUs4UGEwd1ZJOVptU0hj": {"osm_id": "368173962", "name": "Treasure Island Museum", "lat": 37.8171936, "lon": -122.3708257}, "CAoSLEFGMVFpcE1wcmh6M3lZWU1SNGJBbF9VdWJlWDItUHc3Mk11NmRRVVFIQzBZ": {"osm_id": "368173965", "name": "California Crafts Museum", "lat": 37.8057928, "lon": -122.4222256}, "EbuE40h2utXwxyY3tTco2Q": {"osm_id": "368173966", "name": "American Carousel Museum", "lat": 37.80658242757569, "lon": -122.420104424536}, "ydHv9-XzV37Y4lkBGZ8Lww": {"osm_id": "368173968", "name": "California Historical Society Museum", "lat": 37.79313539711722, "lon": -122.4294253603392}, "_AQEfJGgrVNlY-FClrENHA": {"osm_id": "368173972", "name": "Museum of Ophthalmology", "lat": 37.80661133654052, "lon": -122.4202181343521}, "aNOaV0kHswdIhtKGUSQ0_g": {"osm_id": "368173975", "name": "Museum of Russian Culture", "lat": 37.78507083041132, "lon": -122.4413687449057}, "CAoSLEFGMVFpcFBsZVRXdnI4Ymx5YTlPUTZQd1FCT1NHMWpPdUFnYlZQc2wyWjdu": {"osm_id": "368173977", "name": "Pacific Heritage Museum", "lat": 37.79418291234396, "lon": -122.4036119276144}, "CAoSLEFGMVFpcFByRXhnVWNtTThlbEdTZDg2a1o4TUFkbDBoOHpqSnphck5FaV9Z": {"osm_id": "386591692", "name": "San Francisco Railway Musuem", "lat": 37.79382105147889, "lon": -122.3936478048563}, "CAoSLEFGMVFpcE1sVkVKNXI4eWRUekJsUFROX25RbnJIWm04QmpyLUdPRElxSmRH": {"osm_id": "415567011", "name": "California Historical Society Museum & Bookstore", "lat": 37.786845952663, "lon": -122.401537150405}, "CAoSLEFGMVFpcE9JNnJJZm04NXRXZlo1eFdFbVdlM085YlRqMndaRU43ODBKRnhU": {"osm_id": "415567060", "name": "Museum of the African Diaspora", "lat": 37.7864623610706, "lon": -122.401471178617}, "sUbMTLwOje0586zPDKo2ZQ": {"osm_id": "417275631", "name": "San Francisco Sea Scout Base", "lat": 37.80741751877714, "lon": -122.4264244824162}, "DAU-J4b5K4HS5biccRxQuw": {"osm_id": "525164215", "name": "Wooden Carving", "lat": 37.75996335215815, "lon": -122.4567276833328}, "UACKD5hBrVOb8gOiNn25RA": {"osm_id": "571374368", "name": "Good Prospect Community Garden", "lat": 37.73980295522997, "lon": -122.4210442202971}, "CAoSLEFGMVFpcE9RNldrcWtaTTA2Tnhwcnh0aE5SY3lYcERnb2R2UjRmYmNjLWZu": {"osm_id": "590952130", "name": "Wave Organ", "lat": 37.8084831, "lon": -122.4401782}, "CAoSLEFGMVFpcE1BMGhzbjZCYk9zSVNYcFc0ckhzbTdtd1VMMGNNSEcxcEM3OWRZ": {"osm_id": "599157316", "name": "Christmas Tree Point", "lat": 37.7549181, "lon": -122.4466497}, "wJFgOaia7OwNA9KjXLtcUw": {"osm_id": "621529017", "name": "Exploratorium", "lat": 37.80091188779339, "lon": -122.3985283429555}, "CAoSLEFGMVFpcE0yNTJxbFQ5OUw5WGtLREdJTmhWLVRCOXZrbVlZT3RrWU9kdk9X": {"osm_id": "633021125", "name": "Mt. Davidson Vista Point", "lat": 37.7384391, "lon": -122.4531993}, "CAoSLEFGMVFpcE9pOG9lNE8tWTNQVjRhSU1idHNPZzNIS2Z2WVZpNGFzZUREYVN4": {"osm_id": "665688981", "name": "Yoda Fountain", "lat": 37.79881049614708, "lon": -122.4504629660944}, "HgmUAv6okH3n0VDxzcmgtA": {"osm_id": "665689214", "name": "Immigrant Point Overlook", "lat": 37.79615978311819, "lon": -122.4778895265074}, "CAoSLEFGMVFpcE9tN1dmWGtxWWpGZU4zV0ViQWlGdk42X2hMYlIwOHFRTGRlbHBX": {"osm_id": "718375841", "name": "Far Out Gallery", "lat": 37.74216759999999, "lon": -122.4985587}, "CAoSLEFGMVFpcE9lR1VQU0RfNlpzNXdsb1FJcjg5Q1dicTNFcGhZNHU0aVJuek11": {"osm_id": "806240639", "name": "Chinese Historical Society of America", "lat": 37.79379207488422, "lon": -122.408787517412}, "CAoSLEFGMVFpcE9iSVRrWVREZFRFN05UaUdhQ2doZkkwS3FKZVFBZm1kYkNvMVhk": {"osm_id": "810359162", "name": "Shields Orizaba Rocky Outcrop", "lat": 37.7180274, "lon": -122.4625815}, "CAoSLEFGMVFpcE4xWkRDYjkzb1RqVW8wTkkweDk1NXQyRXh6MXRaLU5nZU1kLXlZ": {"osm_id": "822484002", "name": "Painted Ladies", "lat": 37.7765581, "lon": -122.4330332}, "Nhw6cxYCGbfL6LFdBI759g": {"osm_id": "994238510", "name": "Noe Valley Courts", "lat": 37.75141247467653, "lon": -122.43853435546}, "pRq8SZNF667Zn72C9fjyfg": {"osm_id": "999546395", "name": "Fulton Street & La Playa Street", "lat": 37.77142006118179, "lon": -122.5094986674735}, "CAoSLEFGMVFpcFBNRnlCYWdYMzZ6NjVNVXlLbHJwM1dyblg0X3V5QkJyR3d1SHhW": {"osm_id": "1067969795", "name": "Bay Bridge and Treasure Island Viewpoint", "lat": 37.7944867, "lon": -122.3897717}, "CAoSLEFGMVFpcFBJRUlJVVhnZHoyb1BQWEQ4VUczLXM0MnVVZ080TElXN2lIdmdm": {"osm_id": "1145969948", "name": "three_dog_heads", "lat": 37.82653535156442, "lon": -122.3703736892327}, "s43e8tXOGxz7ZKug7stqqg": {"osm_id": "1147880103", "name": "Smile - Man Taking Photo Statue", "lat": 37.79082591120181, "lon": -122.3919094763159}, "e34GoCM2UV8qeaJQzuU0eg": {"osm_id": "1183479527", "name": "Twin Peaks", "lat": 37.75462138932021, "lon": -122.4464281373412}, "dB3GLr-qLW9nLyMAvNhB5w": {"osm_id": "1183479599", "name": "Treasure Island Naval Station", "lat": 37.81620482663232, "lon": -122.3718177193463}, "CAoSLEFGMVFpcE1TNmhvRVcyMFBPc0p5ekJXNW92VzViZVBHVGZ1NmFCNzFiS2It": {"osm_id": "1206749885", "name": "SF Camerawork", "lat": 37.786857, "lon": -122.4007168}, "CAoSLEFGMVFpcE9kclRUc1JETkFKcGtJbnB5TUFtVEhrM1hSNUZWUVoxNFNMXy1N": {"osm_id": "1250280541", "name": "Sister City Gardens", "lat": 37.7847214, "lon": -122.4024638}, "CAoSLEFGMVFpcE5YenptYVRycS01TlJWbHU5aEJ0V0FiVzNOTks5bXpGeDVQblpV": {"osm_id": "1306296013", "name": "Heron's Head Park Bird Blinds", "lat": 37.73817018266268, "lon": -122.372837215662}, "CAoSLEFGMVFpcE1QRVhYWUFQX205MnNOX3RXRzJTUHBTNmFrVU8xYl9iRURtUndf": {"osm_id": "1308317902", "name": "Golden Gate Fortune Cookie Factory", "lat": 37.7957004, "lon": -122.4073446}, "CAoSLEFGMVFpcFBEcm1OZllHaV9LSEMtYnhPVEN3QXdoVzY0ZmJWb2M2T19JUWU5": {"osm_id": "1350922072", "name": "Camellia Gardens", "lat": 37.76942140000001, "lon": -122.4819726}, "CAoSLEFGMVFpcE1RMDkxdlkwcjhITmZBV0FmSWdwUTBWLWVsZXRoczJfTFdwSDB6": {"osm_id": "1417635914", "name": "Sea Lions", "lat": 37.81063480397263, "lon": -122.4115925139919}, "CAoSLEFGMVFpcFB4MmRaTjlwNGE5VG1od2NfWWFvWWdlZFZmU2FFZEdtUnhwd3R6": {"osm_id": "1450189977", "name": "Port of Trade Winds Harbor Beach", "lat": 37.813631, "lon": -122.3701262}, "CAoSLEFGMVFpcFAyTDR5Y3VCdTZheHViOVh0ZGUxd3pjRm9iZUVKRU5GR0RobGVw": {"osm_id": "1526523442", "name": "Alcatraz", "lat": 37.8253308, "lon": -122.4213408}, "CAoSLEFGMVFpcE5xQWZTSnNlUFpTbkl6MTJXTFVhdEE3Y0ZyUTY4X3J2Vm5BUVdn": {"osm_id": "1564452801", "name": "Crissy Field Center", "lat": 37.80594480000001, "lon": -122.4490197}, "CAoSLEFGMVFpcFBrdGNQaUNaNXZvY3ByYUV4VUk4N3hhcE9tUEhERHh4Y0M0RU9l": {"osm_id": "1564470252", "name": "Spire", "lat": 37.7918067, "lon": -122.4601147}, "CAoSLEFGMVFpcE1NYU4xNkVMOEpuNWVHNEdmNW9RMlpvd2trcnBmbDNLZ0o0MlZY": {"osm_id": "1709352211", "name": "The Parapet", "lat": 37.7778702, "lon": -122.5121307}, "CAoSLEFGMVFpcE9ORmloUkZ1LTZMQjdiMTlkSGl0RVJpdTMzUWV3WTc5Tk1ERTZn": {"osm_id": "1948074360", "name": "Strawberry Hill", "lat": 37.7687133, "lon": -122.4754783}, "_qalUM51DvGaooE5TpO_HA": {"osm_id": "2026996113", "name": "111 Minna", "lat": 37.7874856936805, "lon": -122.3994087457348}, "CAoSLEFGMVFpcE4tZFgxNF9xYnZQZlltUkFoV25CLTB1Q0FRZ25jTDV4ZGdBVFR0": {"osm_id": "2321383070", "name": "GLBT History Museum", "lat": 37.7607931, "lon": -122.4355186}, "CAoSLEFGMVFpcE1nQzc3bkRBM0hXTHRMdE1NR2lubHVhdVRjMUtSSjhLZktQWG1I": {"osm_id": "2341179749", "name": "Madame Tussauds San Francisco", "lat": 37.8082059, "lon": -122.4148825}, "CAoSLEFGMVFpcFBWNnFfc1c0X01FY0dpdzJJY2haeUFvbTZaZktzaGd1dFE3LXlj": {"osm_id": "2365845678", "name": "Magowan's Infinite Mirror Maze", "lat": 37.8100483, "lon": -122.4102864}, "CAoSLEFGMVFpcE5ZeG9uQVNES3RseTNUZUJzamJGdEkwbG9JUXRIdXRyWjJmbDRM": {"osm_id": "2406468887", "name": "National AIDS Memorial Grove", "lat": 37.76793888888889, "lon": -122.461755}, "CAoSLEFGMVFpcE5wSzVYNi1Pa29CVUxzQlQ3WXhWd19xbFF4N1R1QWc0T2hsV2lq": {"osm_id": "2567140420", "name": "The Thinker", "lat": 37.7847201, "lon": -122.5004774}, "CAoSLEFGMVFpcFBib3VjQ0VZQUxwZjQ1VHAzUXpJVTFxMHRscE1XWmQ1VW0tVlZp": {"osm_id": "2579643653", "name": "Bank of Canton (former Chinese Telephone Exchange)", "lat": 37.795096352835, "lon": -122.40618210233}, "CAoSLEFGMVFpcE5HRHY1aWVYbERzZ2F3MGo4dXpvdF9Zc0hJOHlOaDRCdUpEa1l3": {"osm_id": "137911952", "name": "Page & Laguna Mini Park", "lat": 37.7734146, "lon": -122.4252853}, "CAoSLEFGMVFpcE5TZFdsODNpemg3MmRMd1lteU9ENkl2X3hfbFk2b0syUmtCS3FW": {"osm_id": "2627670561", "name": "Koshland Park Community Garden", "lat": 37.77329539999999, "lon": -122.4267738}, "0LK_FaQ6FFEg5OAVxTNhuw": {"osm_id": "2627671922", "name": "Page Street Community Garden", "lat": 37.77338602662167, "lon": -122.4280081001748}, "w4Jx-uWurMeAFwi6CcGMJQ": {"osm_id": "2627702907", "name": "Corwin Street Community Garden", "lat": 37.75745871473119, "lon": -122.4390321892111}, "ywl92Ztaly77AUMF697fQA": {"osm_id": "2627730431", "name": "Crags Court Community Garden", "lat": 37.7415232292034, "lon": -122.440641225319}, "rFxaxlutQDZQNZ2RtxSgcw": {"osm_id": "2627740453", "name": "Park Street Community Garden", "lat": 37.73654789643646, "lon": -122.425815292595}, "CAoSLEFGMVFpcFBYeTFOam9mbDhPcl85VC1qR2FiSWVDNC1seW9VMFA3Y09Vc2s0": {"osm_id": "25004325", "name": "Kid Power Park", "lat": 37.7642232, "lon": -122.4204179}, "I8sBn8_ZSWa2KJT4Krkn_A": {"osm_id": "2627767256", "name": "Arkansas Friendship Community Garden", "lat": 37.75735086339402, "lon": -122.3979931549884}, "mgMT1g0y0LIkvjwCw_EeRQ": {"osm_id": "2627767875", "name": "Connecticut Friendship Community Garden", "lat": 37.75741098787795, "lon": -122.3970324474035}, "thn9S-pTQNmHsTX_TWwhLw": {"osm_id": "2627776189", "name": "Lessing & Sears Community Garden", "lat": 37.70872133174696, "lon": -122.4551587532293}, "-9o1oE9jadARiHsiTSm8_w": {"osm_id": "2627794649", "name": "Gallery Paule Anglim", "lat": 37.78810381115907, "lon": -122.4039555385198}, "CAoSLEFGMVFpcFBjbGtIOXVraUZsNldILWZsd1k4MlMzamdzRlRuN2Vrbll2VHJM": {"osm_id": "2627803906", "name": "ArtZone 461 Gallery", "lat": 37.7655506, "lon": -122.4217285}, "Gc9EYJHJcmTVBgtM0WgPvg": {"osm_id": "2713436108", "name": "Fairy Circle", "lat": 37.72295443769813, "lon": -122.4782346980594}, "9MdFMn0Qdm_HekSzgSldLQ": {"osm_id": "2721823472", "name": "Waterfall Column", "lat": 37.72324972536242, "lon": -122.4813034300694}, "VGbUc8S4rvgp_CcD-4z2NA": {"osm_id": "2721825793", "name": "Hall of fame photo collage", "lat": 37.72401783801462, "lon": -122.4780045805014}, "8CjUaq2lYgicCbHXnYuR4A": {"osm_id": "2721828529", "name": "Secret Garden", "lat": 37.72324933115907, "lon": -122.4780558696553}, "RGdqOFJMdUy4BhQUkMuuzA": {"osm_id": "2724198095", "name": "Tiger sculpture", "lat": 37.72177747287326, "lon": -122.4787874698246}, "9ESEzaxDGsOPwHzLu6I4sQ": {"osm_id": "2724208120", "name": "Couple's Statue", "lat": 37.72280166305852, "lon": -122.4805446617135}, "6w8QjUw5xdywARlF8T8V3A": {"osm_id": "2726228491", "name": "Stormwater / Roofwater Management Bioswales", "lat": 37.7225843891507, "lon": -122.4767046108011}, "QRF2xwvg1nbrgffn7cuuvg": {"osm_id": "2726228500", "name": "Habitat Gardens", "lat": 37.72345917467808, "lon": -122.4797182364346}, "wMJdy3yuPA8tITlu0SD9eg": {"osm_id": "2802306724", "name": "Landscape Learning Library", "lat": 37.72088612073534, "lon": -122.4779548200356}, "AZECyCoPiQPQh-9rhrDGqw": {"osm_id": "2802308703", "name": "Habitat Garden", "lat": 37.72279154234017, "lon": -122.4753607457105}, "CAoSLEFGMVFpcE1YVXVHckhUdDBWSlZQTnB6X1QxZWRnNl95M2Fna1JXV3I1QVZk": {"osm_id": "2969748418", "name": "Children's Garden", "lat": 37.76600639999999, "lon": -122.4751528}, "CAoSLEFGMVFpcE5acEROT1BLeXgwUnBPdXRRN1NpcmlEYWc1TDU5UFZSS1FmclNf": {"osm_id": "2969748420", "name": "Redwood Grove", "lat": 37.7666667, "lon": -122.47197}, "CAoSLEFGMVFpcFBjOU9fZE1OWVVWZ3pUR0tVa180M0ducERJVjRGYUZXckhKVmpN": {"osm_id": "2969748421", "name": "Succulent Garden", "lat": 37.7668854, "lon": -122.4725289}, "z0sNXD5dgqW4UdKZvrtVXw": {"osm_id": "2969748422", "name": "Southeast Asian Cloud Forest", "lat": 37.76741132152311, "lon": -122.4727471842029}, "CAoSLEFGMVFpcFA0TXprWFFPMVNCZlFDTXp1NmxIVVRTdjVZd2cyREpTbzdtOEVM": {"osm_id": "2969748423", "name": "Camellia Garden", "lat": 37.7678515, "lon": -122.4716518}, "CAoSLEFGMVFpcE50dzI2RE9kZWJYcnJWMkdQY2JfSndUNXc2ZkVEeHFrd1hvZDhx": {"osm_id": "2969748424", "name": "Moon Viewing Garden", "lat": 37.767789, "lon": -122.4717472}, "CAoSLEFGMVFpcE5qM2lsemhSTHhFS0xVaEdBRnlHVFN2eUk0Q2UyRjlMYjUtUFY3": {"osm_id": "2969748425", "name": "Zellenbach Garden of Perennials", "lat": 37.7683431, "lon": -122.471994}, "CAoSLEFGMVFpcE1nZWMzRG44SnBWOTZ2eFQydnFRSVF0NkVadU9fLTQzcERRQzRk": {"osm_id": "2969748426", "name": "Andean Cloud Forest Garden", "lat": 37.7688117, "lon": -122.47123}, "CAoSLEFGMVFpcFBOcmZUVUo4OFI2aUJXUXBrdkgyV2RheWVSS1lMNEFiSE1uNzF5": {"osm_id": "2969748427", "name": "Australia Garden", "lat": 37.768701, "lon": -122.4706087}, "CAoSLEFGMVFpcFAxbGVkNWJkRllISFIxZE9hdGExYUpsNUhTMmFnRUROdjhvOVhn": {"osm_id": "2969748428", "name": "Gondwana Circle", "lat": 37.7686108, "lon": -122.4708457}, "CAoSLEFGMVFpcFBOYXVJcG5uWXJXOG1DQ2ppbXZCQlh0TlY1clZpaURUWV91Qk9s": {"osm_id": "120480164", "name": "San Francisco Botanical Garden", "lat": 37.7677204, "lon": -122.4702206}, "CAoSLEFGMVFpcE91VzRWdmtKek1MUkJxOGdJUW0tSUN1cmpGc2NhMXl5SkZZMGYx": {"osm_id": "2969748430", "name": "South Africa Garden", "lat": 37.7676008, "lon": -122.469922}, "CAoSLEFGMVFpcE53Q0x1VWlEbkFEdVlfenhiTWRpYkpnallUajAyV0ZUV0pNUWRz": {"osm_id": "2969748431", "name": "Ancient Plant Garden", "lat": 37.7687469, "lon": -122.4701238}, "CAoSLEFGMVFpcFAzLXVTWWZJR0Z6Q2M2Ylh0RmtKLTVHM2JLekhfV2xjRkhIUnhz": {"osm_id": "2969748432", "name": "Rhododendron Garden", "lat": 37.7685292, "lon": -122.4690526}, "CAoSLEFGMVFpcE15Y2FKYllscVI5cHo1bGdoSmdQeF9nWGYxTU5QZ1lGYzl2Yjg0": {"osm_id": "2969749533", "name": "Mediterranean Garden", "lat": 37.7681583, "lon": -122.4694917}, "CAoSLEFGMVFpcFBmUGE0ZlBYUVFockxYZ3Vyd2Iya0dxQU9UemtJZTJqeVJvMFl3": {"osm_id": "2969749534", "name": "Garden of Fragrance", "lat": 37.7681378, "lon": -122.4685575}, "BcNkErd8cWP9g2fpwhtbnQ": {"osm_id": "2969749535", "name": "Exhibition Garden", "lat": 37.76786854666577, "lon": -122.4670396569259}, "CAoSLEFGMVFpcFBPR3JnWVkxRTFiU0FDVkhKVWdFT3ZWc2tWamJyMzk0R1hvaEZx": {"osm_id": "2969749536", "name": "Temperate Asia Garden", "lat": 37.7662617, "lon": -122.4683467}, "CAoSLEFGMVFpcE8wQVd0VnloV1c5ZnM5TEN0NEgwX1R6VW1TVW1tOXFxMTVwWnQ5": {"osm_id": "2969749537", "name": "Meso American Cloud Forest", "lat": 37.7665283, "lon": -122.4687009}, "CAoSLEFGMVFpcE8wTk5ZcFZ6T1YxS0pac2h5MnBKalAzTFV2aWFzZ3BOdGFoQUFo": {"osm_id": "2969749538", "name": "California Native Garden", "lat": 37.7664575, "lon": -122.4705688}, "CAoSLEFGMVFpcFBOMGNhazc5Rk5FS3NJZUEyWUNCWTN3VlZwQnQ4cERxRGw1aVI1": {"osm_id": "3077094260", "name": "Dahlia Dell", "lat": 37.7724997, "lon": -122.4577412}, "CAoSLEFGMVFpcE1wYkRzalN2TTRxNXNkaERRaGFsYk5ZSkZONUpFUXhaUi1ycHpD": {"osm_id": "3101265351", "name": "Observation Deck", "lat": 37.7141893, "lon": -122.5032683}, "DTSiga6vfSO-z7TCGy2xTw": {"osm_id": "3102310161", "name": "Pax Jerusalemme", "lat": 37.78547792123989, "lon": -122.4993449692117}, "HXx55bPoT0uWehWzPb-uTw": {"osm_id": "3257706561", "name": "Shaking Man", "lat": 37.78414355194297, "lon": -122.4024879795323}, "CAoSLEFGMVFpcE10Tlc2ekFWU2NxMkdjcFhwbjNwbWhXM3gtcVZQdDgyMk9DSXpR": {"osm_id": "3257706562", "name": "Urge", "lat": 37.7835380828684, "lon": -122.40178874072}, "CAoSLEFGMVFpcE5kZUR4YjJjZ0tVUWpHaTF5WGtFYWhMc3RpN2NCRlMteDVkRE52": {"osm_id": "3274030861", "name": "Lightfold", "lat": 37.7877542, "lon": -122.4040147}, "CAoSLEFGMVFpcE5KNjNVWUUtQW1CU3k0OEl5dThYSjJDNE9GLU1GVEdHWXU5UFZS": {"osm_id": "3357102023", "name": "The Banker's Heart", "lat": 37.7923021, "lon": -122.4040419}, "CAoSLEFGMVFpcE9wbktRWnpJVW5vUUEwM2lQTkNUcDVmZDB1cjJvSjdoeVdWSEYw": {"osm_id": "3401354577", "name": "Lands End Labyrinth", "lat": 37.7879995, "lon": -122.5058828}, "_wdDaA6FzqDpmJOGu5wpBw": {"osm_id": "3640213359", "name": "Annie St Plaza", "lat": 37.78696486440019, "lon": -122.4014326150144}, "CAoSLEFGMVFpcE1NRGVJTDM1VmRpbDdvZVM4VTZGcVBwTDM2NmJ5T1l6WU5UY0Zu": {"osm_id": "3690164348", "name": "Musical Steps", "lat": 37.8100166, "lon": -122.4102859}, "ZsDWKN1w2GCN5a8HHLWmLw": {"osm_id": "3859909729", "name": "Little Puffer Steam Train Depot", "lat": 37.73333246251732, "lon": -122.5002662004232}, "9RGTow9JwKwjjo-WQ-OtwA": {"osm_id": "3860138780", "name": "African Savanna Viewpoint", "lat": 37.73296807250834, "lon": -122.5045672017291}, "Od23FveSacP1rIH3sqBpsg": {"osm_id": "3860321519", "name": "African Region Viewpoint", "lat": 37.73170576961127, "lon": -122.5055804418884}, "CAoSLEFGMVFpcE0ycmY3dnNuem03VXZELV9QQXVCSVhDVmx1UmMxc0h5UWFyUFhF": {"osm_id": "3860321520", "name": "Giraffe Viewpoint", "lat": 37.7320486, "lon": -122.504533}, "Z3gdRvgs4KACnDuXp_GPlQ": {"osm_id": "3860321541", "name": "Java Dog Statue", "lat": 37.73540747740732, "lon": -122.5029322269131}, "kBg-ARIP6TKXzzLSvtGpTg": {"osm_id": "4013664175", "name": "Wiggle Bike Mural", "lat": 37.76973934460741, "lon": -122.4283016289251}, "CAoSLEFGMVFpcE9SWTdySEl6cy1xNFVBYnNuWGRIV1FJRHVXbWdGdXZPSk4tVW84": {"osm_id": "4022613414", "name": "The Mexican Museum", "lat": 37.8068058, "lon": -122.4307443}, "JERYHYOyti5iyxrEYGlCRw": {"osm_id": "4022645781", "name": "Museo Italo Americano", "lat": 37.80697939995598, "lon": -122.4312360072019}, "CAoSLEFGMVFpcE9HeDAtaThMWjlMNVdfOERPdjc3YVpZVlh5X3hZSllRWmh3S0Zh": {"osm_id": "4046025013", "name": "John Pence Gallery", "lat": 37.787673, "lon": -122.4142172}, "eUConJP6Ts0uj54azTXzcA": {"osm_id": "4057348983", "name": "Museum of Craft and Design", "lat": 37.75690676725995, "lon": -122.3881011206022}, "CAoSLEFGMVFpcE5xT2ZTZVN6Sm5qNHE2RE9FWFVCOXg3RUJ5aVFYSlNnSzRGeHJn": {"osm_id": "4110675636", "name": "Buddha", "lat": 37.7703559, "lon": -122.4699774}, "CAoSLEFGMVFpcE9JRlp3MVhCb05pZTJCVWdwZmxod2JqZWVydkc4bXh2a1p4NEM5": {"osm_id": "4110675669", "name": "Peace Lantern", "lat": 37.76999731204283, "lon": -122.4705658480525}, "CAoSLEFGMVFpcE5TRVBIZE5JX1JTWG1LN2Z3X1VEZHRZMHpYTHkydEp2NjhIUTh0": {"osm_id": "4127224064", "name": "Big Heart on the Rock", "lat": 37.798032, "lon": -122.398589}, "CAoSLEFGMVFpcE5adElPTFY3dzBxa3JHeDA5OC1mSTBtUWx1ZmZPWm1NckQ0UEpr": {"osm_id": "4149743879", "name": "Guardians of the Gate Sea Lions Statue", "lat": 37.8086586, "lon": -122.4107437}, "CAoSLEFGMVFpcFBGanBpdEpoWENmdXFDdmk4R0VXUmswTnhnWGpYd3o2Wjk3U3V0": {"osm_id": "4179665037", "name": "Eagles Point Overlook", "lat": 37.78673029999999, "lon": -122.494802}, "CAoSLEFGMVFpcFBudmttVGhlbWp5QnNTQzB6Q08ySUI3eDVISVFNTjcwUUtRSFEw": {"osm_id": "4202269447", "name": "Golden Gate Overlook", "lat": 37.80405830000001, "lon": -122.4767138}, "CAoSLEFGMVFpcE4yOEw2dXBnLWZLUnM4cExfSjlHZVRSN1ZTR1RueVladE9Yb3dE": {"osm_id": "4207307534", "name": "Pacific Overlook", "lat": 37.8008562, "lon": -122.4779568}, "CAoSLEFGMVFpcE03ZW5WYkdJb0ZVWkQ5QUhoZlRBYUJXMVN2VElzb3cwYng5c1ZD": {"osm_id": "4212477106", "name": "La Rose des Vents", "lat": 37.77236680000001, "lon": -122.4588422}, "CAoSK0FGMVFpcFB2TDFSZ2szT0lyVEZSVWsyQUZKT3c0dDZGMUlJRGo0dWx6NjA.": {"osm_id": "4212482733", "name": "Los Lobos de Loyola", "lat": 37.7761022, "lon": -122.4518703}, "CAoSLEFGMVFpcFAtLWFLcUw1eXpKVzlmcXRWM1hnSGdHc2wzWDk2Y3JiVjdHNXR5": {"osm_id": "4220113808", "name": "Spread the Word", "lat": 37.8084514, "lon": -122.4707352}, "EumP6v5UOyWCsxEGTORpwQ": {"osm_id": "4220113840", "name": "Cannon", "lat": 37.8033680696865, "lon": -122.4665697166362}, "C-uNUtoOl098l4KDT9-VMw": {"osm_id": "4220113841", "name": "Cannon", "lat": 37.80334910863559, "lon": -122.4664624369189}, "YTafHLdroHYPjZh8scVL5Q": {"osm_id": "4242437689", "name": "California and Powell streets", "lat": 37.79205273979452, "lon": -122.409188576081}, "BDthJyz7_pjALE12k_FmHA": {"osm_id": "4242452389", "name": "Rainbow Crosswalk", "lat": 37.76089046030301, "lon": -122.4350329501144}, "CAoSLEFGMVFpcFBPMjJjZGo0WU5xNXZrMndPYUdZZF9vUXYzdFE4UXN2MGpfYXlW": {"osm_id": "4257831621", "name": "Olmec Head", "lat": 37.727398576926, "lon": -122.450976719365}, "CAoSLEFGMVFpcFBnOXdNM0ZOSWpLeHpyNFE1MlRsVTBoVWQxRkpEQlB3a3Myd001": {"osm_id": "4265327050", "name": "Watertower View", "lat": 37.7231667, "lon": -122.4245193}, "AKNhFPYZFGnlXG8n0mVrWA": {"osm_id": "4265327055", "name": "Gambier Plaza", "lat": 37.72445967073544, "lon": -122.42084831939}, "IWENmIJBcf2mZoN7D51-eA": {"osm_id": "4265327213", "name": "Hidden Bridge", "lat": 37.72100801949357, "lon": -122.4155252399067}, "CAoSK0FGMVFpcE1sWVJnSVNuUWgzYlZTaGZLRS1CNDd0REc2VV82Y1cyVTZ1OTQ.": {"osm_id": "4268951942", "name": "Indian Head Rock", "lat": 37.7156258, "lon": -122.3957367}, "CAoSLEFGMVFpcE5ERkg1eWFDNDFleWh2SHFyS2NmZ0otdlo2cTRvUHlDWExCUEVp": {"osm_id": "4289777489", "name": "Wells Fargo History Museum", "lat": 37.79341237643523, "lon": -122.4027224578302}, "sgrQqe56eARorkU_YEYy9A": {"osm_id": "4293365608", "name": "Animal Mural", "lat": 37.72377379867944, "lon": -122.4234691442663}, "QCuL1SNRAhfH7fZaGxIUig": {"osm_id": "4293370299", "name": "Porpoise", "lat": 37.72354742614409, "lon": -122.4193158380129}, "5QwXtUm6jWhzvGEJYwqbcg": {"osm_id": "4293479589", "name": "Peter Richards Rock Art", "lat": 37.72053206078046, "lon": -122.415184404302}, "CAoSLEFGMVFpcFA1UEdRSkJDRllyajVUSGl6eGVncWZaSlhTbWRrZlJib1RpcDB5": {"osm_id": "4352185689", "name": "Migrant Heart", "lat": 37.793625, "lon": -122.4465867}, "z3apKARHAVNkHVFwKJRcLA": {"osm_id": "4370295596", "name": "Langton Labs", "lat": 37.77713152050274, "lon": -122.4094196731626}, "CAoSLEFGMVFpcE1KMGdfQk1iU01UR3h6R3laZEpBXzNvMTV0NGRLWUhJejdObmdi": {"osm_id": "4370393289", "name": "Alter Space", "lat": 37.7769975, "lon": -122.4108681}, "3ZchgG8NDnY1g9CslSPH4g": {"osm_id": "4421547689", "name": "Tobin House", "lat": 37.78982307604491, "lon": -122.4267109300246}, "DQb9C8m6Uyv_IosIKF1TmQ": {"osm_id": "4548821893", "name": "Graffiti", "lat": 37.75142200266492, "lon": -122.4178178145543}, "CAoSLEFGMVFpcE5Cd1ZWblltMlkxOExobmE0SlBBVHJfN2ZMSEU0Z2QwVzdQX0VX": {"osm_id": "4613845060", "name": "Bay Cruise Line", "lat": 37.8087878, "lon": -122.4111328}, "CAoSLEFGMVFpcFBXMENadkI3QzY5YTctcTZhTm5KcUphRE9kaXdiRTk5cm1HblNj": {"osm_id": "4625172114", "name": "Whale Tours", "lat": 37.808764565453, "lon": -122.410072921553}, "YL917XEIN__T79iv59Hniw": {"osm_id": "4625205008", "name": "Speciality Shops Art Gallery", "lat": 37.7886127199981, "lon": -122.4059435702491}, "CAoSLEFGMVFpcE01TDU1SkRubW1uUU85eHoxZGhscHgzdzYwbXUwYngyRDRXTFl5": {"osm_id": "4628571737", "name": "Gallery 444", "lat": 37.7882604207525, "lon": -122.40939251018}, "CAoSLEFGMVFpcE5tUjVDM2JsT1FqRVFHR0tiMlphbFdZRVFTYzllX0kwUWx1QnFX": {"osm_id": "4731441413", "name": "Buena Vista Peace Symbol", "lat": 37.7704849, "lon": -122.4405594}, "fzdlEPuhg2MzX6ylGFgsMA": {"osm_id": "4731444688", "name": "Buena Vista Park Waller Entrance", "lat": 37.77001174334683, "lon": -122.4392166514809}, "hXvscHCl1gU8U63xGBgMIQ": {"osm_id": "4761684656", "name": "A Very Small Gallery", "lat": 37.76434405351534, "lon": -122.4163112143483}, "CAoSLEFGMVFpcFBqX01USjNGdHYwZE8xRHU3Z3MyR3JpNVdmSFhzSnN3dEU3WTJh": {"osm_id": "4773733656", "name": "Jimmy Hendrix house", "lat": 37.7700568, "lon": -122.4474569}, "YVf3ClGyW_e48aQzqtO46Q": {"osm_id": "4773763428", "name": "Grateful Dead house", "lat": 37.76869233697352, "lon": -122.4466911178119}, "WRIWDlWrF102dDi_0i9Gqg": {"osm_id": "4773763623", "name": "Janis Joplin house", "lat": 37.76950970055733, "lon": -122.446856992145}, "NLaz85DCv1jmPSJb9Vgx4A": {"osm_id": "4867441963", "name": "Friend Gate", "lat": 37.7692347231045, "lon": -122.4703272877051}, "CAoSK0FGMVFpcE02QzI0eGpEdGZPWTFLTFZxbXZ4bjVKMWlOTkVVcDI0dXZ5bmM.": {"osm_id": "4970567036", "name": "Fort Point", "lat": 37.8088123, "lon": -122.4721762}, "CAoSLEFGMVFpcFBTTlNHbDQ0Yy1haGpieTBBZm1kOFBLZ0dxbTJ1X0xYS3pXRkpr": {"osm_id": "4972243722", "name": "Lombard Street", "lat": 37.8021183, "lon": -122.4188814}, "CAoSLEFGMVFpcE03cnliSVgtMzFfdUs3dkxWME5tcXhpck10Qkw1bjk5Zm1qZnJk": {"osm_id": "5025094824", "name": "Little Italy", "lat": 37.796556, "lon": -122.4050448}, "CAoSLEFGMVFpcE5mMFc0dF9rS0dtYUZGQ0N5OW5Jc2VmR2dHVVRZS0hpeS1CQUpE": {"osm_id": "5038430321", "name": "Cartoon Art Museum", "lat": 37.8064788692052, "lon": -122.421756601075}, "gM4yVmAtXyDNwMEfuMKMXw": {"osm_id": "5128563699", "name": "Southern Exposure", "lat": 37.75934814089336, "lon": -122.4116230209036}, "CAoSLEFGMVFpcE9McDQyaE4xY3MtaWsyNW5zdTI3UzFGa3ZVSjNHWnh4UFpfS3ZE": {"osm_id": "5134506932", "name": "International Art Museum of America", "lat": 37.78155588151, "lon": -122.410739080893}, "14nmbnflJSr96xACacD8hA": {"osm_id": "5134621034", "name": "Tenderloin Museum", "lat": 37.78393516090136, "lon": -122.4143045697554}, "CAoSLEFGMVFpcE90X0t1MWR3OFpyU2JEMFAyVzBwamUwbXJFczE4UFo5UmZ6YXV0": {"osm_id": "5146764731", "name": "Pan American Unity", "lat": 37.727538, "lon": -122.4509743}, "phzd7EAmkNJZch_XGZhP-A": {"osm_id": "5184250097", "name": "Invocation Statue", "lat": 37.74968829185538, "lon": -122.4031852322215}, "CAoSLEFGMVFpcE9DWnVFLUE4YjVRVHc3WHdpR1o5a2hQXy15akZ5clRWbUZHMFhH": {"osm_id": "5184723410", "name": "Seals Sculpture", "lat": 37.778405, "lon": -122.3876783}, "CAoSLEFGMVFpcE5kMEtWMEhZSEdtMzV0WWRsMWs4U3pzeTNrVUZRM3ZXLWNUczc1": {"osm_id": "5213680421", "name": "Skyline", "lat": 37.7982778, "lon": -122.4135703}, "CAoSLEFGMVFpcE1zeUJ1dGNvSmJwUVlZcGhWZEw4TlMtUngzS3cyVERVMWd3U3pl": {"osm_id": "5296472719", "name": "San Francisco Dungeon", "lat": 37.808245, "lon": -122.41483}, "a3r9tyaTX1Xe8A6i0WKHDg": {"osm_id": "5423524022", "name": "Coit Tower & East Bay", "lat": 37.80025491117314, "lon": -122.4183983605916}, "HIuGytkes7izHJfpVtsfdA": {"osm_id": "5423541521", "name": "3-way Russian Hill view", "lat": 37.798489766099, "lon": -122.4172412404996}, "aylWWG4b_ftGLeVvVoQ7sQ": {"osm_id": "5423541522", "name": "Coit Tower & Bay Bridge view", "lat": 37.79942024012836, "lon": -122.4174089761738}, "CAoSLEFGMVFpcE9uVEd3dDc5S1ZyZ0g4eWluTFBiZzFZbG5obVFuT0UwZHBjWFJk": {"osm_id": "5427706522", "name": "Autodesk Gallery", "lat": 37.7941414, "lon": -122.3947602}, "CAoSLEFGMVFpcFBOcFhGdElzZzZMRV9lcmlXbGRDS1QwVkVLazhtM2psNEhxQWdN": {"osm_id": "5441990638", "name": "Venus", "lat": 37.7782011, "lon": -122.4132018}, "CAoSLEFGMVFpcE1CRXg1bUFOQXRUSWxLQ3RuT2FYUHM4U3hDVkJUbDJZaXd2ZXI1": {"osm_id": "5455625122", "name": "\"Crab Topiary\" Crab Statue", "lat": 37.8085074, "lon": -122.4101999}, "CAoSLEFGMVFpcE0tVERoQkhfazkyY3NLQUJDd1YtTmVUTnl3ekdyOWxYaTd0R29O": {"osm_id": "5455630121", "name": "Fisherman's Wharf of San Francisco", "lat": 37.8083373382887, "lon": -122.415712798481}, "UwGKz0RSdCAP44OruOgMaQ": {"osm_id": "5506735524", "name": "Car Pool Pickup To Vallejo", "lat": 37.79179680638948, "lon": -122.393153312257}, "CAoSLEFGMVFpcE9nR3lZa0ZvajhZcEFtbk5Lb2JWVlVlTWdmcW9JcDlZc0J1QXVZ": {"osm_id": "5509212822", "name": "Pier 39", "lat": 37.8086199, "lon": -122.4098344}, "CAoSLEFGMVFpcE01dWFlcVJCRnZsV1NRUmw4MEpLZkR4WFF2Y05nSkExR0tMUVVJ": {"osm_id": "5566754390", "name": "Miguel Hidalgo Memorial Statue", "lat": 37.7597083, "lon": -122.42775}, "CAoSLEFGMVFpcE1EQU5wUF9hOTBIeHE5Q1BqV2NScGUxYUZvSWNYdjZIakVQQjdy": {"osm_id": "5581588797", "name": "The Beat Museum", "lat": 37.7980902, "lon": -122.406165}, "CAoSLEFGMVFpcE9hY0t3c1hZbkwtWm1CbDFJXzY5bVlxYi1ZMHZRam1rN2FiYUd1": {"osm_id": "5595955721", "name": "color factory", "lat": 37.7888163, "lon": -122.4097473}, "4KP-4sOu_dyIKWXG1ujJPA": {"osm_id": "5634062924", "name": "China Town", "lat": 37.7968672342981, "lon": -122.4084696137359}, "CAoSLEFGMVFpcE44eXkxdXlkWjFCSW1Kd0poWlE2WUVqRlc5TXBzTVVvcUY1enRP": {"osm_id": "5735235209", "name": "Inclusions Gallery", "lat": 37.73905893234789, "lon": -122.4154092371464}, "5_6jPXusBVLcS9f6-Q9NSg": {"osm_id": "5794706153", "name": "Pride Barbie Doll Display in private windows", "lat": 37.7593063178029, "lon": -122.4346933010941}, "CAoSLEFGMVFpcE1OUF9OZ3hYcnlSeEZZQlBSdDJvX3JQRkVfdEEyWUdSQkFpalV5": {"osm_id": "5848243785", "name": "Museum of Ice Cream", "lat": 37.7870125, "lon": -122.4051806}, "CAoSLEFGMVFpcE5oVDdoZUlDczY2eGhheVNxRkx2Ukl6MmtHR1VSaGFMUUI3aDc3": {"osm_id": "5884541139", "name": "Bradford Street", "lat": 37.737342, "lon": -122.4097352}, "CAoSLEFGMVFpcE11NVVEMExWYmxHbUhadjhlTEpyeS1BZ1NFb29OX3dTUDUwMFlz": {"osm_id": "5891843288", "name": "Salesforce Park Cable Car", "lat": 37.79017827038708, "lon": -122.3967648670077}, "CAoSLEFGMVFpcE9HREpxajM2MFpQdDdRb2pqVEtMakZkSFJvRWVwMjZDMkl3bkxw": {"osm_id": "5891854685", "name": "Salesforce Park Cable Car", "lat": 37.7898624, "lon": -122.3964121}, "cdz4edpcLHBpWkK7wvhZEA": {"osm_id": "5905646187", "name": "Peephole Cinema", "lat": 37.74921900678365, "lon": -122.4198290584411}, "CAoSLEFGMVFpcE4yM1N2eEJpSVlMRmlQc1RhRzFqY3JuR3IwMjNlWjA4RHJSdTdp": {"osm_id": "6032494975", "name": "Adobe Books and Arts Cooperative", "lat": 37.7525617, "lon": -122.414906}, "a9ovuKqs8WI6zpWtRlNWIQ": {"osm_id": "6064575615", "name": "Inspiration Point", "lat": 37.79241197179847, "lon": -122.4577508465496}, "tlR0LhbjZqNslK8tEbtqDA": {"osm_id": "6064744363", "name": "National Cemetery Overlook", "lat": 37.79740933723487, "lon": -122.4651720582283}, "CAoSLEFGMVFpcE5GbXlkeXBGbmw4YUZhOFZrOXloSUJUeHVJd25PaHUtRUtBdEl1": {"osm_id": "6173285515", "name": "MURAL 2", "lat": 37.7629919, "lon": -122.4208175}, "vDQloa0e9UP9TFY6xynbug": {"osm_id": "6242792043", "name": "Hashimoto Contemporary", "lat": 37.78857562594754, "lon": -122.4138220878653}, "ehBHvF5Ak-0neg7Hwwghww": {"osm_id": "6333906199", "name": "Fear Head", "lat": 37.78219126300999, "lon": -122.4114053240797}, "2u_liOHXSrYynYcuSirL8A": {"osm_id": "6433062291", "name": "Buckyball", "lat": 37.80124475663259, "lon": -122.3987584837116}, "CAoSLEFGMVFpcFBpNDNiWWo2d3VQQzlESVgyRFhobVo1aUZUODZvWUhsUWVjU1BJ": {"osm_id": "6467168692", "name": "Joseph Strauss Legacy Circle", "lat": 37.8079466, "lon": -122.4753968}, "CAoSLEFGMVFpcE4wTHo4NlZ6Mi1wZ3UzWWtzQjZPMHJSMElpTE5HYi1GbVQ5Q2Ra": {"osm_id": "6488849506", "name": "Confluence", "lat": 37.7880174753043, "lon": -122.409865215381}, "biZ5Lunec51aeSMHw4aZBw": {"osm_id": "6488849508", "name": "Skyward", "lat": 37.78816856529873, "lon": -122.4096128298324}, "CAoSLEFGMVFpcE9Ra3h6bWZJbDNXSkRaSnZkcGgtNU13b2huSzhpS2xTLVRfTTFs": {"osm_id": "6488917196", "name": "Here Comes the Sun", "lat": 37.7875348, "lon": -122.4079953}, "CAoSLEFGMVFpcFBITVVmcVNTYkJJZktpN2lWaTlxYkNKZ2FtTEk5RnZFMzd5TmZP": {"osm_id": "6498982997", "name": "Double L Excentric Gyratory", "lat": 37.77934339999999, "lon": -122.4165571}, "CAoSLEFGMVFpcE10YTlvNUFsS2JhbUNLaUktN25VM2lMTUdESzN0M1NiN0I4VDZN": {"osm_id": "6530499563", "name": "Sweeping Through II", "lat": 37.7933384, "lon": -122.3941948}, "CAoSLEFGMVFpcE5CTXdRUVlXRFlNeHFXUG1LeGw3WjBIbUNkTE9WX1R3ZURfZUNs": {"osm_id": "6530499565", "name": "Reconstruction (a new beginning)", "lat": 37.7930775, "lon": -122.3939466}, "twc89vBIV4B6CTWSRydp4Q": {"osm_id": "6536212408", "name": "Playland Revisited", "lat": 37.77342900721721, "lon": -122.5100627317422}, "CAoSLEFGMVFpcE9pTndfd3NmX25yQWFzblRndGkwSDIzYUtEa0tWM0gyYlZOc183": {"osm_id": "6536261110", "name": "North Observation Deck", "lat": 37.77879067262285, "lon": -122.5140018761158}, "Nz7iRHiBhURJ3M_ef5MfKA": {"osm_id": "6551999561", "name": "Untitled (Pirate)", "lat": 37.77177341579318, "lon": -122.4675297293086}, "CAoSK0FGMVFpcFByOXItelBjMGszcHpVcDFFOHRNMGlOT2tNMjdwMTR3Q21iNXM.": {"osm_id": "6551999577", "name": "Po\u00e8me de la Vigne", "lat": 37.7715833, "lon": -122.4675283}, "CAoSLEFGMVFpcE1GRFJYNEltQkpJcHhzRUt5bHVMeG1VT3VGbHMxWjJyUzFxRU43": {"osm_id": "6551999578", "name": "Neptune\u2019s Daughter", "lat": 37.78, "lon": -122.42}, "CAoSLEFGMVFpcE53MjBEZ25iei0zS0xraE9tZFc2OWdEbXAwa3c5NjFyclRZWGNT": {"osm_id": "6582227560", "name": "My Heart", "lat": 37.7919231, "lon": -122.3976275}, "5moMYWDZvgnQ9qVW4p4JPQ": {"osm_id": "6592178864", "name": "Thank You Teachers", "lat": 37.7752231594059, "lon": -122.4768829121028}, "YhLMeqN90s_Bo5vku9rVkw": {"osm_id": "6592179996", "name": "Argonne School Native Garden and Outdoor Classroom", "lat": 37.77479342185394, "lon": -122.4767093986167}, "bk48xLrf5gGmboxdTpZOOQ": {"osm_id": "6604085460", "name": "Mr. and Mrs. George F. Jewett, Jr. Exhibit Gallery", "lat": 37.77880172430912, "lon": -122.4155839181357}, "CAoSLEFGMVFpcFA4aDhKdUIxdlZCVG5qOU9OTm9tMHpzVVh3WHlvbDhGSWVCWDNz": {"osm_id": "6621497633", "name": "Pierced Monolith with Colour", "lat": 37.78, "lon": -122.42}, "CAoSLEFGMVFpcFBnWHo4U3ZLeUs3cFNDX0xRc1ZaZ0xhZ2ZNWTM3NVhiX0FzeW9z": {"osm_id": "6621511985", "name": "Corridor Pin, Blue", "lat": 37.7707051, "lon": -122.4691986}, "CAoSLEFGMVFpcE9ZdDRMdW9mUGhjMGt2R203TEdBbDcxVkVlZGdwWVlFRDJRbmFM": {"osm_id": "6621497641", "name": "Minuteman", "lat": 37.7706263, "lon": -122.4695246}, "CAoSLEFGMVFpcE9WVldyZk9hVk1mZWdRbzJQR3NWWFJfQWZUVGFDUkpMOExlTE9r": {"osm_id": "6621512002", "name": "Artificial Rock", "lat": 37.7711167, "lon": -122.4695333}, "Wa_zmDB_ddxn2i-PYL1ZTg": {"osm_id": "6625376822", "name": "Windswept", "lat": 37.76436343083346, "lon": -122.4385921568274}, "CAoSLEFGMVFpcE1ySWFMUy1tU2lyalBWbklqbVZTWGRONUtIaHlaWmo2MF9DVVZ1": {"osm_id": "33619301", "name": "Boeddeker Park", "lat": 37.7842947, "lon": -122.4122516}, "lVe-P7LPqg1zWACO7QtAOQ": {"osm_id": "6675827854", "name": "Seward Street Slides", "lat": 37.75801622405673, "lon": -122.4397606188886}, "CAoSLEFGMVFpcE5uQlo4dWIxNm9kczY2dzVSM05BMDlfLVF6MUdmT196cDIzRExq": {"osm_id": "6691138540", "name": "Ingleside Sundial", "lat": 37.7247656, "lon": -122.4687386}, "Zu2NRKETdktksjbIckLd9g": {"osm_id": "6693646147", "name": "National Japanese American Historical Society", "lat": 37.78580054410464, "lon": -122.4293988022804}, "5Js7y9QUh6csSxyhnDYn5w": {"osm_id": "6698159285", "name": "I have a dream mural", "lat": 37.75541155718204, "lon": -122.4193200723726}, "jj1MBy5iN-dcMgx75k4PkA": {"osm_id": "6698159385", "name": "Mission pool Murals", "lat": 37.75960616649798, "lon": -122.4228576905639}, "v9zHhtzMb7Cwv8RnpHAK4Q": {"osm_id": "6711257655", "name": "Hippocrates", "lat": 37.7635988861334, "lon": -122.4574947763737}, "wpisJFTR47ocK0qo4Zorog": {"osm_id": "6743302325", "name": "Promenade Gardens", "lat": 37.77735752045994, "lon": -122.4541661738049}, "UBBP2Lfyl7v0hOPbVA4EnA": {"osm_id": "6743302327", "name": "Jesse Owens", "lat": 37.77734528685269, "lon": -122.4542852147235}, "dk0fpEu3_c8mIIiW5wQynA": {"osm_id": "6780093120", "name": "The Haight Mural", "lat": 37.76954268605051, "lon": -122.4506804954818}, "CAoSLEFGMVFpcE8weUxkaHdoOTNCU255NjhhY3VMZUh1RFRvWHBORVhtb2ZVaDRF": {"osm_id": "6791585441", "name": "Mr. Foggy\u2019s Neighborhood", "lat": 37.78329930209296, "lon": -122.4610969732493}, "lJpHETGC6cA8VcV_8qd99A": {"osm_id": "6824083570", "name": "No Human Being Is Illegal", "lat": 37.77339242701711, "lon": -122.4178904910053}, "_NAT8oAk_aUhm4-6K-QzBw": {"osm_id": "6839078151", "name": "Louis Pasteur", "lat": 37.77999618416728, "lon": -122.4631502726436}, "CAoSLEFGMVFpcE5VMzFNbDRjYmx2UTNvR2JkdDZXM29GMkdpTi1tcFVKaEJWMklF": {"osm_id": "6910433490", "name": "Skygate", "lat": 37.808276, "lon": -122.407846}, "ySQcpCYcrpynlZvY-tOP7w": {"osm_id": "6922632878", "name": "Sunset Boulevard & Vicente Street", "lat": 37.73835747227951, "lon": -122.4941157087479}, "CAoSLEFGMVFpcFBrd2dzbEV4cnhuc2lBNTdtOENmaTVoWGFDYmZSNGhzTWJvYUp2": {"osm_id": "6924250085", "name": "Jazz mural", "lat": 37.7979677, "lon": -122.4070804}, "CAoSLEFGMVFpcE9NbEVpOHdYN0IwU29iMTNFZU5uaEt2d2FNSnVJQ2MtQVhVczQ2": {"osm_id": "6959502925", "name": "Climate change is real", "lat": 37.787565, "lon": -122.409593}, "CAoSLEFGMVFpcE5lYUctU0ZhbGhZVlMyMjhfeEZjMk1uYjJnWnNxU2xodkthSzcx": {"osm_id": "6960882346", "name": "Heaven Art Gallery", "lat": 37.7911989, "lon": -122.4055589}, "CAoSLEFGMVFpcFB0RkxFak43MFpYaG9fcHZIal9zbWZmVWx5emp1S3JDT2FaaWpq": {"osm_id": "6960892851", "name": "\"Comfort Women\" Column of Strength", "lat": 37.7917828, "lon": -122.4044796}, "h3Jl-jjP1EBAUxs9x-ueeQ": {"osm_id": "6960980687", "name": "WWII Pacific War Memorial Hall", "lat": 37.79336503951997, "lon": -122.4063354272842}, "CAoSLEFGMVFpcE5KZjgxbEVnQTc3TVVCS1M3TnRhT2ZxWFdIb2txTDNOVk9VbGhS": {"osm_id": "6964627886", "name": "Alamo Square Park", "lat": 37.7763694, "lon": -122.434819}, "zl2a26_6ARElthTU3Jpm3Q": {"osm_id": "7005442296", "name": "Matter of Trust Eco-Home", "lat": 37.76769084138841, "lon": -122.4503620627143}, "CAoSLEFGMVFpcE9EN0V3SWVnZXpmdE16ME1ReUsxa0NLSnZqSFBOa1BybUlhWXVG": {"osm_id": "7015591920", "name": "Bay Bridge Trail Lookout", "lat": 37.810777, "lon": -122.3633637}, "CAoSLEFGMVFpcE9aM1Nkck56czlvb1Uxa1drR3ZaOC0tWC1qNmpKYndXdWlUMDRz": {"osm_id": "7045575485", "name": "San Francisci Maritime", "lat": 37.8075474, "lon": -122.4205826}, "QB5XFhYcUxqsGILgtMgpNQ": {"osm_id": "7170659565", "name": "George Moscone", "lat": 37.78472889460571, "lon": -122.4001423769184}, "CAoSLEFGMVFpcE1zeVVsWTV2Z3hzWHZyNjdJS0JrSW44eEZBNUZWM3hfZEpXRF9z": {"osm_id": "7177796746", "name": "Goddess of Democracy", "lat": 37.79466230738796, "lon": -122.4053872615619}, "puZ7LBL93cOuhKbyPhrh7Q": {"osm_id": "7191732933", "name": "Large Four Piece Reclining Figure", "lat": 37.7781168268773, "lon": -122.4199519406163}, "CAoSLEFGMVFpcE9meFFUVEpJYzN0S1BSOGEyS2ZtYmo1VXZIeTZXV3ZycExLNWdS": {"osm_id": "7191732936", "name": "Balanced, Unbalanced T", "lat": 37.77808580000001, "lon": -122.4208239}, "CAoSLEFGMVFpcFBhVWRDN2huM2Jub2FodFJRNWllbWtvX0dQb0daQWRtNVc3QVdL": {"osm_id": "7212382894", "name": "Cable Car Turntable (Hyde & Beach)", "lat": 37.8070578, "lon": -122.4212818}, "CAoSLEFGMVFpcE9HVTNqYV94anRjX3hqSEZXTTdObkNINElVTklwbmpGNDBwc3pw": {"osm_id": "7212382895", "name": "Cable Car Turntable (Taylor & Bay)", "lat": 37.80527230000001, "lon": -122.4152298}, "CAoSLEFGMVFpcFBDQkJia0Fha2hCenJvZFF6TzZyRElWUzFyQmdSb3lXQkdrbXpQ": {"osm_id": "7216367686", "name": "View on Golden Gate Bridge & Richardson Bay", "lat": 37.80347432678296, "lon": -122.419976120327}, "CAoSLEFGMVFpcE8zX29TREVrcFRWb2RpZXhvTWc0aE1ZWUdweS1Hd3Ixc1BtLTR3": {"osm_id": "7221410485", "name": "Lyon Steps", "lat": 37.7928437665039, "lon": -122.446449682056}, "nnoBn6kOlf83k4CQPkUnxw": {"osm_id": "7223586218", "name": "Blooming on Fragrance Alley", "lat": 37.79404259821132, "lon": -122.4075250769353}, "Z4PMAxCNNL__tB7OtDhqbA": {"osm_id": "7223598886", "name": "Resting Hermes", "lat": 37.79211379051005, "lon": -122.4087528262}, "CAoSLEFGMVFpcFBWR2hfQlpMRTVQbHZwUHM1cHdtSzhMVGVpU3dkdllrTHQwNDVG": {"osm_id": "7237427004", "name": "Signal", "lat": 37.8226578, "lon": -122.3763545}, "CAoSLEFGMVFpcFA0bkZhcHZjckdOV01CejUyLTV1MU1uZXJzTGhBcUhfTDFxal9r": {"osm_id": "7238014842", "name": "Lincoln Park Steps", "lat": 37.7835061, "lon": -122.493539}, "zyxBnr0QbLyoufyg7Dp4CQ": {"osm_id": "7275728046", "name": "Tolerance", "lat": 37.78427884188861, "lon": -122.4379796680723}, "Qso1aMji9az_XvP4GjcLaA": {"osm_id": "7283489385", "name": "Alcatraz and Hyde St Pier ships", "lat": 37.80355249955326, "lon": -122.4217103843435}, "DMNq8N3S9GbMJ54qtISUvw": {"osm_id": "7434096721", "name": "The Lyft Van", "lat": 37.75069061307955, "lon": -122.4028845460998}, "CAoSLEFGMVFpcFAzQUp5RUppd21VaVpHYlZhTUd3clZRU0c0RmZTaDVJd0c5SDht": {"osm_id": "7579456885", "name": "Alcatraz", "lat": 37.826638, "lon": -122.4228661}, "fvYkUA0nOo3HRkmKrP6mfQ": {"osm_id": "7682208593", "name": "Rainbow Honor Walk - Freddie Mercury", "lat": 37.76494818000095, "lon": -122.4320526241999}, "qhin3U5ypjqvCLKpLd3YCg": {"osm_id": "7830656936", "name": "Statue", "lat": 37.76316469567076, "lon": -122.4590584884865}, "CAoSLEFGMVFpcE14M0lIN2dIanRMdjlHZGpQZmFXb1g5V0M1WDlqUnVuV0pmYjEy": {"osm_id": "8117601542", "name": "Shadow Kingdom", "lat": 37.7665873, "lon": -122.3970273}, "VN8wNNfEtYgxlWHKOldY3A": {"osm_id": "8178088526", "name": "Hilltop Park Sundial", "lat": 37.73320939764326, "lon": -122.3837813079859}, "3NhRNZFXtE1VAC5_nPeSuQ": {"osm_id": "8200387891", "name": "The Box Shop Mural Project", "lat": 37.73307635962115, "lon": -122.3770561276582}, "PTz17zQqmWud4_BbmXihlA": {"osm_id": "8527520436", "name": "Nautical Swing", "lat": 37.72729291619987, "lon": -122.3672225618066}, "CAoSLEFGMVFpcE9yRjM1Uzk2NjBIa3JtUkNYM0UwVE5rV2RjdVlIRFZOTkpEc0tr": {"osm_id": "8641952045", "name": "Cable Car Turntable (Powell & Market)", "lat": 37.7847214, "lon": -122.4076996}, "CAoSLEFGMVFpcE5NRDg3cndhNFhWcGxtSmRzU1A5Vlh6STFuV1U2N3hvNDcySHlS": {"osm_id": "8645592585", "name": "Balmy Alley", "lat": 37.7518028, "lon": -122.4124145}, "CAoSLEFGMVFpcE1KR0Z3X0dDYllTajlzd2JhU081eEwyM25EaWdOYnRFUHlmWTha": {"osm_id": "8722065764", "name": "Pine Tree Obelisk", "lat": 37.7970975078994, "lon": -122.399230571578}, "CAoSLEFGMVFpcE5fbVZCLUs1alB4YllJY2lkbzRWUDl5ejI2M3d2RzJtcGdyaGVz": {"osm_id": "8722065771", "name": "Fountain of Four Seasons", "lat": 37.7974743, "lon": -122.3988203}, "CAoSLEFGMVFpcFB0clBDUW5qeHFNREdWN0dCUjN2Si1PLUNoYkpnNWhzZTM2ZGpN": {"osm_id": "8722065770", "name": "Two Open Rectangles", "lat": 37.7976134, "lon": -122.3995664}, "jOOFK1m93hiub05T8k8exg": {"osm_id": "8722065772", "name": "The Penguins", "lat": 37.79688599182506, "lon": -122.3983207356862}, "CAoSLEFGMVFpcFBGQ3FOS0pyajVzcXh4bFFidWc1bVRYam1fZVpQeWwxRzFTOW5I": {"osm_id": "8727307961", "name": "Jessica Silverman", "lat": 37.7928172, "lon": -122.4060849}, "CAoSLEFGMVFpcE1EcWVxSVd5dmNza2I1Z24wV3gwVFBTaFBxaVNUYnltN19zT0RX": {"osm_id": "8868774561", "name": "Seeing Spheres", "lat": 37.7673023, "lon": -122.386407}, "AWhc54-rpl4VLaUm5CI43Q": {"osm_id": "8878517394", "name": "John McLaren Memorial Rhododendron Dell", "lat": 37.77244027371975, "lon": -122.4645585923196}, "YKEmMfRrkfTGJyPsZ90zmw": {"osm_id": "8973091799", "name": "Letterform Archive", "lat": 37.75977461939625, "lon": -122.3884244100404}, "CAoSLEFGMVFpcE5aYUhiOXE2bG14N2ppeXM1X2tBeFQ3UXFJZFkzTEtmSlNIaWJo": {"osm_id": "9010894444", "name": "Grace Cathedral Labyrinth", "lat": 37.79209440251904, "lon": -122.4128396809101}, "seI74acJLdiBIZJwBwFriA": {"osm_id": "9025866291", "name": "Bayview Gateway", "lat": 37.71795712593412, "lon": -122.3981280768716}, "n23kqYCp4rHrEPPzzhecyQ": {"osm_id": "9200430826", "name": "Tokaido Arts", "lat": 37.78518019771092, "lon": -122.4312482768092}, "CAoSLEFGMVFpcE5BZ19aNjR5dXBMemJ6ck5IbnhINVpOUndWZjBqMmF5Y1EtUWVy": {"osm_id": "7459901", "name": "Buena Vista Park", "lat": 37.768367, "lon": -122.4411113}, "CAoSLEFGMVFpcE00cUY3d2t4WUVFNHR0VV81QV9XQUM4dkVldzhRVTZvSDhpUlpS": {"osm_id": "8916752", "name": "Clarion Alley", "lat": 37.76299839455932, "lon": -122.420683567592}, "V8QQTyzU8zDhFEFz8w6kpA": {"osm_id": "16751151", "name": "Panhandle", "lat": 37.77141526466267, "lon": -122.451096201696}, "CAoSLEFGMVFpcE1oOGcxQ0NXUkMtNXZpQzhWbDB3dkM5cHlIVVZPbEdWd0IzMVdE": {"osm_id": "16751737", "name": "Alta Plaza Park", "lat": 37.7908626, "lon": -122.4376833}, "CAoSLEFGMVFpcE51Z1pRcXVmYUR5MG8tS1AzYUpldEJiN2Z5bk1IOGNFbERhRF9B": {"osm_id": "16752188", "name": "Bernal Heights Park", "lat": 37.7428902, "lon": -122.4137436}, "CAoSLEFGMVFpcE9fRzlHcjk5ZkV5bUJRekxld0FkOGlGcFEwU1Q3aFFURTRCZWsw": {"osm_id": "16752409", "name": "Holly Park", "lat": 37.73725406333912, "lon": -122.4198981040692}, "CAoSLEFGMVFpcE5UVjVtSkJTVThGcUZncjlnanJMYk1RNjFlVXp3dFUybTh6Rk8y": {"osm_id": "16761472", "name": "Marina Green", "lat": 37.8066309, "lon": -122.4391173}, "CAoSLEFGMVFpcE5Vc0VaRmUyQnctU0ZXcGFNSlhrN2JxQnlKbnltR3pwTWV5eTJG": {"osm_id": "18583270", "name": "Washington Square Park", "lat": 37.80086319999999, "lon": -122.4101626}, "CAoSLEFGMVFpcE01b29LTVBfTUp6YjRFa0tDamZaUllmM0lyci1aLVlWVXhZQzNy": {"osm_id": "3830941", "name": "Sea Change", "lat": 37.7809085, "lon": -122.3880358}, "CAoSLEFGMVFpcFBiVkdjN3c0OWZSdEtuNWlGQ0hDVnpxZnJuR2Z1eEs3Ry14Vkwt": {"osm_id": "23750483", "name": "Jackson Park", "lat": 37.7643628, "lon": -122.39922}, "CAoSLEFGMVFpcE1QVnFZaGt4R1BScW5yRTNmdER5Zm9xdzR0MEtZLXhrYm9qZnZL": {"osm_id": "23871270", "name": "Mission Dolores Park", "lat": 37.75974347531229, "lon": -122.4275049939752}, "Ahv_hLU2trtnA3--9Rnk0g": {"osm_id": "23881517", "name": "Rolph Playground", "lat": 37.75000098258614, "lon": -122.4058306971754}, "p-bgagO4iAANvYFYgWtHGw": {"osm_id": "23908184", "name": "Precita Park", "lat": 37.74727558303698, "lon": -122.4120099307395}, "CAoSLEFGMVFpcE1paFg0QkNSYmVqUEpEbTdWdll4b3FmWjdwdloyNENCRVFhWXFV": {"osm_id": "23916482", "name": "Sydney G. Walton Square", "lat": 37.7974352, "lon": -122.399112}, "CAoSLEFGMVFpcE1udmwzdTlFdmFoemFlUVZxdnptSW9vN1A5UTgyM0JvV3lrNXps": {"osm_id": "24052083", "name": "South Park", "lat": 37.7816148, "lon": -122.3939284}, "CAoSLEFGMVFpcE1LMElrXzZZc2Q2OGVvenQ1QWRLTjR1UDZ1OE93ck4xaXZQalVn": {"osm_id": "24222973", "name": "Transamerica Pyramid", "lat": 37.7951778, "lon": -122.4027787}, "p3kB9uOf4gZ2B2EhhXGgRQ": {"osm_id": "24253472", "name": "Garfield Square", "lat": 37.75027758764463, "lon": -122.4127958450598}, "CAoSLEFGMVFpcFBXLUhtczJoc0ktRkxxNnB0UWctRlk2dGpzZjFxSHgzMlpseHpo": {"osm_id": "24445970", "name": "Potrero Del Sol Park", "lat": 37.7504607, "lon": -122.4053672}, "CAoSLEFGMVFpcFBKY2ZIRHVPZWh0X3ZCMDVRNGwyeTNodmZDRkdNUGtSd29VUVBV": {"osm_id": "24547823", "name": "Franklin Square", "lat": 37.7651239, "lon": -122.4093639}, "CAoSLEFGMVFpcFBuSTJ3SHNHR2VfRlZhYllBYlgtTmZRUWlINFpzRlN0dHNSOVpj": {"osm_id": "24547834", "name": "McKinley Square", "lat": 37.7594095, "lon": -122.4047589}, "ZcmXkJ7cqyReoh-KNNYMfw": {"osm_id": "24562831", "name": "Balboa Park", "lat": 37.72498086652539, "lon": -122.4450219063198}, "CAoSLEFGMVFpcFA0dmVUaThLcVlacnNYbkpjMnVudE9RU1IyLWRraThxSTRFcE11": {"osm_id": "24562854", "name": "Duboce Park", "lat": 37.769455, "lon": -122.4336943}, "CAoSLEFGMVFpcE54NFJQUzdXNTNEeFdSM1c1STMwemVCb0VWYlE1UXlPdFBsRkhU": {"osm_id": "24563073", "name": "Yerba Buena Center for the Arts Gallery", "lat": 37.7856437, "lon": -122.4021904}, "CAoSLEFGMVFpcE96cFkzR24yNk8zRTByZHZlOEgtbnVvUHpWRzNRVnN2NWpxWGRq": {"osm_id": "24588037", "name": "Asian Art Museum of San Francisco", "lat": 37.780376, "lon": -122.4160133}, "CAoSLEFGMVFpcE9lUk5yZlNORG5jaW5ieGwwNERMZkNyTzNMWlFKNGtkZktqazdU": {"osm_id": "25278818", "name": "Union Square", "lat": 37.7879199036499, "lon": -122.407542177629}, "CAoSLEFGMVFpcE9IM216Z0FTc2dwTEFGTlFGQk1xLXRTQ0ZYTVRQUHJDYjJ2bkE4": {"osm_id": "25751184", "name": "Levi's Plaza", "lat": 37.8026005, "lon": -122.4013571}, "CAoSLEFGMVFpcE9ZZEcyOV9Ja1BETVQtaXVNQWtyQzduOG5IUlQ2T0dCZ1JtOHZW": {"osm_id": "25759141", "name": "Bill Graham Civic Auditorium", "lat": 37.7780409, "lon": -122.4173717}, "txQpFMpMUlHkI8MaGdJfJQ": {"osm_id": "25821949", "name": "Jose Coronado Playground", "lat": 37.75727059289574, "lon": -122.4151105161131}, "CAoSLEFGMVFpcE5uSnRmdm5DYV9wbVA2dHZNVjU1eE9oX1JkWkw4aDU1NmkwT0xn": {"osm_id": "26278429", "name": "Tank Hill", "lat": 37.7600104, "lon": -122.4474754}, "D4sdpMAarV2JlXjS96fmaA": {"osm_id": "27092661", "name": "Grattan Playground", "lat": 37.76295189290153, "lon": -122.4514637875904}, "CAoSLEFGMVFpcE5zVFpsajRKWUJINlJJaFlwRUQwdEdCQlpZVWxtRXdmNHg2X1Nx": {"osm_id": "27104863", "name": "Ghirardelli Square", "lat": 37.8059549, "lon": -122.423069}, "CAoSLEFGMVFpcE9MbVQ0TWRhcUhJNTc4cDZxU2JaOExXUzJYVkhDQkROeHBqTmRm": {"osm_id": "27146063", "name": "Embarcadero Plaza", "lat": 37.7950549, "lon": -122.3951572}, "CAoSLEFGMVFpcFBwUUdMV1Y4d3hxQjVxeTA2NXFVX2Q0MWg3RFFHZW5XMnhtTHAx": {"osm_id": "27239292", "name": "Warm Water Cove Park", "lat": 37.7539089, "lon": -122.3829605}, "CAoSLEFGMVFpcE5XWkdaX2hlWHhqMUt4b1dITmhLZXlUdnpmcEdsd0czd1EyeXRh": {"osm_id": "27239372", "name": "Esprit Park", "lat": 37.7610344, "lon": -122.3909752}, "0lidnoZm7h1sbI5uGHtzbQ": {"osm_id": "27369705", "name": "Mission Creek Park", "lat": 37.77111508353633, "lon": -122.3964484988581}, "NHDgUEmF-5JirBL7VBnTDg": {"osm_id": "27369817", "name": "Minnesota Grove", "lat": 37.75361836468676, "lon": -122.3898727172529}, "1u1r9atJn1DQO3THKIzmpA": {"osm_id": "27657304", "name": "Juri Commons", "lat": 37.74941786116526, "lon": -122.4226087355983}, "CAoSLEFGMVFpcFBHdkpDWGNoOThfVWphbEg1b1Y4clVnQmJteC1MdHFSSlh6eXY0": {"osm_id": "28015862", "name": "Patricia's Green", "lat": 37.776134, "lon": -122.4244228}, "CAoSLEFGMVFpcE9MVlNOZFBoZS1aX21POWZST09YVHVIZnV1TVJCVmdSS2ZrZTJV": {"osm_id": "28670189", "name": "India Basin Shoreline Park", "lat": 37.7348345, "lon": -122.3753576}, "NrA4ifEUoLAIkdhOSmdupQ": {"osm_id": "28671926", "name": "Heron's Head Park", "lat": 37.73863851601455, "lon": -122.3728615427896}, "_h7LJZqaHVIewcsBJUHMJA": {"osm_id": "28689198", "name": "Tulare Park", "lat": 37.7480912652461, "lon": -122.3902916032289}, "CAoSLEFGMVFpcE1ONFBJdjQ0enpjZXJjUmx6dU43dVJmdXc3c2pOMWZMTzU1THl2": {"osm_id": "28695389", "name": "California Academy of Sciences", "lat": 37.7697867, "lon": -122.4663467}, "CAoSLEFGMVFpcE05cWdtdklLM2psaTRCZFVYWkszWUl3VGNOSGZFbkU3bm5HRTh6": {"osm_id": "28824850", "name": "Coit Tower", "lat": 37.8023832, "lon": -122.4058324}, "CAoSLEFGMVFpcE41UmZtdTA2aThGOVFDUjFibnpuMHliUHlHMmRFWklmbXl2ZVkt": {"osm_id": "28839856", "name": "Greenwich Street Stairs", "lat": 37.8029145, "lon": -122.405344}, "CAoSLEFGMVFpcFBKQ3F0WVIzbC1QZmk5RFZmTDl5QVNYQncwQmlOR05RR3VlazIy": {"osm_id": "28842443", "name": "Yerba Buena Gardens", "lat": 37.7847214, "lon": -122.4024638}, "wyfay7bVm81HmiGC50CBAA": {"osm_id": "28942138", "name": "Penguin Island", "lat": 37.73262956179612, "lon": -122.5016941436052}, "pezTGAbnkuU6KBOsQQAqQA": {"osm_id": "30029681", "name": "Cable Car Museum", "lat": 37.79516163803385, "lon": -122.4118761501488}, "CAoSLEFGMVFpcE5FTE94dE05MVZKT0ZJQUREN3dPNHJwMGZnVV96bDBtcUVNQ3FF": {"osm_id": "32611483", "name": "Filbert Steps Garden", "lat": 37.8019273, "lon": -122.4050428}, "CAoSK0FGMVFpcFBvNmE2OVdkUFlxVEs3c2RSTUtNY2o2U2xBTTJjQ2dxLUwtVnM.": {"osm_id": "30675038", "name": "Conservatory of Flowers", "lat": 37.7726147, "lon": -122.4602283}, "CAoSLEFGMVFpcE1Jd2hGOW5taHNMME5Qa1BmSDJUODcyd3ViLXowSFFYclEwaVU3": {"osm_id": "30675203", "name": "Kezar Stadium", "lat": 37.7667327, "lon": -122.4563582}, "CAoSLEFGMVFpcE9QMmhuZWJIdWRTelp3b0hWelpNY0ltWUJ6MGdaMXFMTUM0R0hC": {"osm_id": "30896932", "name": "Spreckels Temple of Music", "lat": 37.7698834, "lon": -122.4685673}, "CAoSLEFGMVFpcE41M00wVkVxc1NGS0VwUi15VGVVWExwS2xabHg0SnRqUGlYYS1G": {"osm_id": "30899551", "name": "Music Concourse", "lat": 37.770555, "lon": -122.4675}, "CAoSLEFGMVFpcFB5ZUFOdFVWQ210clI2U3owQnkxMk4yQ1d6SVEtaURjNUlFTW1T": {"osm_id": "30900516", "name": "Japanese Tea Garden", "lat": 37.7702789, "lon": -122.4702759}, "CAoSLEFGMVFpcE1RRzI5R0xiamJSLXhuV25vUEFCLXpwTzJ3YWRHNGt1UXBTamVz": {"osm_id": "32776564", "name": "Sutro Baths", "lat": 37.78017738453118, "lon": -122.514057867229}, "CAoSLEFGMVFpcE1RY1Z0SlEzSnhKejAydXE1SEp6amkwdTRFODRla09BcWdwUWhj": {"osm_id": "32839638", "name": "Aquatic Park Historic District", "lat": 37.8069018, "lon": -122.4230562}, "CAoSLEFGMVFpcE9LWVJjb0gtXzFWRVR1TXl0X1ZfcEE1eHB6UDJWWFYzVXE4MHUt": {"osm_id": "32839686", "name": "National Maritime Museum", "lat": 37.80641079999999, "lon": -122.4239031}, "zQITb0aVm-f5yGUyiVs0VQ": {"osm_id": "32857635", "name": "Marini Plaza", "lat": 37.8005299197528, "lon": -122.4105941639401}, "CAoSLEFGMVFpcE9BVXhWYVdHNV8zMm51RmtUc3pfaUlkbzR4cTBjSTdFQXk5d2I5": {"osm_id": "32858754", "name": "City Lights Booksellers", "lat": 37.7976073, "lon": -122.4065603}, "CAoSLEFGMVFpcE05TFd4UF82SzA0RGQwN2xHbUhINWt5cjlfNjI3Uk1UT2RqNWRy": {"osm_id": "32862802", "name": "Rincon Park", "lat": 37.791116, "lon": -122.3894938}, "CAoSLEFGMVFpcE5uZUZfbnpXeDhsWm9ZN2VuRlhLdGE3RjJzN0N0cW5CcDlxVlF3": {"osm_id": "32946958", "name": "Huntington Park", "lat": 37.7921908, "lon": -122.4121708}, "CAoSLEFGMVFpcFA3bmpEaTBodUlMaVlCVWtYQWh6WHkzRWhsaHhfZE0yUVJYb056": {"osm_id": "35049434", "name": "Willie \"Woo Woo\" Wong Park", "lat": 37.7935094, "lon": -122.4071719}, "hXBYcB8jAFGVTbJv9Plw3w": {"osm_id": "35050562", "name": "O'Farrell-Larkin Mini-Park", "lat": 37.78540852940401, "lon": -122.4179759570647}, "CAoSLEFGMVFpcE9nZFRtc0Q4a2hGSnZydFRfQlJsV1NvNHBKNnhvd2pneUdia2J0": {"osm_id": "35065721", "name": "Joe DiMaggio Playground", "lat": 37.80246004886266, "lon": -122.4123454838991}, "YFUU6R_8UT_hivB13cLUqQ": {"osm_id": "35800082", "name": "Glen Canyon Park", "lat": 37.7398478674529, "lon": -122.4431765936374}, "CAoSLEFGMVFpcE9fQl9XampscnZ0eVZuYmhNemV5OGgtV04zMm9sa3RkbFRJbmdD": {"osm_id": "36949360", "name": "Cottage Row Mini Park", "lat": 37.7864089, "lon": -122.4321722}, "ETcAwR2Tw4teSHvurDJang": {"osm_id": "36950438", "name": "San Francisco Fire Department Pioneer Museum", "lat": 37.7858407208444, "lon": -122.4465403620052}, "khV8FoHiOtpB33dArWDD9g": {"osm_id": "36950468", "name": "Baker & Broderick Mini Park", "lat": 37.7858744838089, "lon": -122.4425618853702}, "I3VGOnVCUZbIZgN72gbcYA": {"osm_id": "37126530", "name": "Greenwich Street Stairs", "lat": 37.80271314798506, "lon": -122.4046812171661}, "SVhcGnAseYE3BnXESXOx_g": {"osm_id": "37191966", "name": "Turk-Hyde Mini Park", "lat": 37.78256884443751, "lon": -122.4159157649411}, "2EMPxp6-ydjr3BNjfgwCRg": {"osm_id": "38025784", "name": "Dog Park", "lat": 37.76546526286931, "lon": -122.4397437143326}, "vrXbmZFtV4CRNlVurfWMzg": {"osm_id": "38026629", "name": "State Street (Corona Heights) Community Garden", "lat": 37.76362337739036, "lon": -122.4378031990655}, "d9u9VVVZfLD2tx03NwrYIg": {"osm_id": "38224213", "name": "Sunset Tunnel Park", "lat": 37.7659486156052, "lon": -122.4488610270639}, "PvzuveBgGppxryaEY6wVjg": {"osm_id": "39335773", "name": "Excelsior Playground", "lat": 37.72041336945689, "lon": -122.4337477041317}, "6PJbprdZTPyjhK-OySc_UA": {"osm_id": "40060675", "name": "Candlestick Point State Recreational Area", "lat": 37.71429477482698, "lon": -122.3816591555792}, "CAoSLEFGMVFpcE9rNk5ob2RTX2g2R3g1UTZueDdNZDRXSjhFUEdBY0lhck1rRU9S": {"osm_id": "41692824", "name": "San Francisco Museum of Modern Art", "lat": 37.7859048730772, "lon": -122.400511171371}, "CAoSLEFGMVFpcE5WZWU2LUJVU3pady00Y0RZM0JLb25CZ3VsX1JCUzQ4VlVDbVVM": {"osm_id": "43100742", "name": "Victoria Manalo Draves Park", "lat": 37.7769632125625, "lon": -122.405943973104}, "CAoSLEFGMVFpcFBVdk9fX19lN0p3MDlTNzBwdFdsWUFyMXdjd1FIVklMRjVtcE5F": {"osm_id": "47174862", "name": "Hidden Garden Steps", "lat": 37.7597501, "lon": -122.4736504}, "CAoSLEFGMVFpcE9TQWZoOXRTdmxaZkJWa05iZWdyWHc3aUdkUk8wVWhnNjM5WWhy": {"osm_id": "48162926", "name": "Greenwich Street Stairs", "lat": 37.802963329407, "lon": -122.403681906825}, "qi1uzBMQwFuvDwfRi2Cefg": {"osm_id": "48162927", "name": "Greenwich Street Stairs", "lat": 37.80294195234804, "lon": -122.4039815838959}, "CAoSLEFGMVFpcE44cTJoZExydGh6cUIzTl9RVFFWQWx0N0NEdEoxd1FxaWwtZ1pp": {"osm_id": "48435252", "name": "Aptos Playground", "lat": 37.7281954, "lon": -122.4671698}, "CAoSLEFGMVFpcE8wSFJsT2VDMXI5cDhvMlp2Y0dEWFZVVVlvc3l0TmNwQ2t0S3Nn": {"osm_id": "48435281", "name": "St. Francis Wood Park", "lat": 37.7369361, "lon": -122.4649012}, "qXGixjKKilzW6iyBIxLIlQ": {"osm_id": "48569996", "name": "Mission Bay Commons", "lat": 37.77096330219386, "lon": -122.3878098134937}, "KEtemIID3mYLXSC7QUrJkg": {"osm_id": "52243885", "name": "Rochambeau Playground", "lat": 37.78491286134108, "lon": -122.4851082778609}, "C-zM6aivIQS-tjAQt2QrlA": {"osm_id": "56645382", "name": "Mission Bay Dog Park", "lat": 37.77060480097364, "lon": -122.3994400340683}, "CAoSLEFGMVFpcFBVV1pleFhqTUpIR3hiTHYyZndaRXhSSW44c3ZrRXI2R3Z1YkhK": {"osm_id": "68705976", "name": "Allyne Park", "lat": 37.7974189, "lon": -122.4275405}, "CAoSLEFGMVFpcE0talY0SlJjMy1OM3Fhc1U5eEEwZ0dXclJfcjB2eldiMXJXc3Bf": {"osm_id": "68854101", "name": "Cayuga Park", "lat": 37.71364579999999, "lon": -122.4502723}, "CAoSLEFGMVFpcE85a0ltQmJfSWl6Z3VrWUpFNUhDdUNHbDlfWG1SRGtJd3VqSjU3": {"osm_id": "68876641", "name": "10th Avenue & Clement Mini Park", "lat": 37.7818665, "lon": -122.4678079}, "TuF7jwM1suhiJ5exXQxeiA": {"osm_id": "68881688", "name": "Treat Commons Community Garden", "lat": 37.75463677219745, "lon": -122.4132061705438}, "CAoSLEFGMVFpcE9yTVY0cjVSNVhDb0NsWC1lcW1ZdWpRbWxlQTJTOUJ1QTZ4SGNN": {"osm_id": "68881693", "name": "Parque Ni\u00f1os Unidos", "lat": 37.7543948, "lon": -122.413504}, "CAoSLEFGMVFpcE5JejFqakJVOWU0ZExBQ0EyVDBnUm1RM2dOMkUtemRReWIzNThC": {"osm_id": "68882142", "name": "24th & York Mini Park", "lat": 37.7530766, "lon": -122.4085094}, "h5f0BKQxgHl1QKR0SczWDA": {"osm_id": "68883459", "name": "Adam Rodgers Park", "lat": 37.73067722905174, "lon": -122.3834241178639}, "0oibc1nEvOBUKbXOJ0-9aA": {"osm_id": "68886068", "name": "Alice Chalmers Playground", "lat": 37.70946270851915, "lon": -122.4465805347772}, "CAoSLEFGMVFpcE1jTV9aSVdiaWlEZzRWc3VxQ3ptMllHclpkZHpTWGQzbTBGSm5X": {"osm_id": "69020319", "name": "Little Marina Green", "lat": 37.80577100000001, "lon": -122.4479267}, "5K9ANIu_Sa1OrtB8Cvm44Q": {"osm_id": "69029501", "name": "Alioto Mini Park", "lat": 37.75892288775169, "lon": -122.4180095731195}, "c36Ih6bLmUPWe0RMjrawew": {"osm_id": "69060030", "name": "Helen Wills Playground", "lat": 37.79603849306629, "lon": -122.4208096922161}, "5QPe-xvOa0_9TZUB6jJGOQ": {"osm_id": "69200132", "name": "Julius Kahn Playground", "lat": 37.79096802058336, "lon": -122.4527652299774}, "nQl20TLB-xav0W4ySPrE0w": {"osm_id": "72024278", "name": "Broadway Tunnel West Mini Park", "lat": 37.79640181646494, "lon": -122.4174617769927}, "FL0Wl_ODPZ84l_LUYDSl-g": {"osm_id": "82207054", "name": "Fort Mason", "lat": 37.80723774281648, "lon": -122.4299534797034}, "pnPduM-XYuw-blNBPBmMrQ": {"osm_id": "82480067", "name": "Bayview Playground", "lat": 37.72592995456368, "lon": -122.3939590749925}, "CAoSLEFGMVFpcFBKRkZWbER2NDBscExrUFRTZHNRSkVIMDZ6SUNrZk1HX2RrSTdo": {"osm_id": "82480273", "name": "Crocker Amazon Playground", "lat": 37.7141825, "lon": -122.4303958}, "CAoSK0FGMVFpcE5QWk1ySXJBeVVyU3NkUTd1bHlabVJBZVhRTnFzSmk3VHIxMkk.": {"osm_id": "84821725", "name": "Koret Quad", "lat": 37.7681555, "lon": -122.3920374}, "CAoSLEFGMVFpcE45Q2ROUmNFZVQwbV9kd1c5Rm8xUDU5Q2czSVBCWExvQV96amtp": {"osm_id": "85684053", "name": "Douglass Playground", "lat": 37.7470671, "lon": -122.4393453}, "CAoSLEFGMVFpcFA3WEpjdkdLRmJzaXVLdjc3aGNSRUZ6VGxhZWhCTE10di1sVWZB": {"osm_id": "85686582", "name": "Dorothy W. Erskine Park", "lat": 37.7337017, "lon": -122.439459}, "stEML4gjdu3tVJyghdpQMA": {"osm_id": "85687774", "name": "Noe Valley Courts Playground", "lat": 37.75179892450065, "lon": -122.4390391011521}, "CAoSLEFGMVFpcE1xNHhlZUpWVkJoYlVBczZPMWtEQVRIOUR6Uk1IcHVacVRoaXRO": {"osm_id": "85689113", "name": "Duncan-Castro Open Space", "lat": 37.7459545, "lon": -122.4334725}, "2MZba4m8M2tu9uXSHek9bw": {"osm_id": "85796801", "name": "Fulton Playground", "lat": 37.77339444661479, "lon": -122.4874935472394}, "MbLHT0VCbqHwY1mGNI0bkw": {"osm_id": "85796807", "name": "Richmond Playground", "lat": 37.78527698868165, "lon": -122.4776040825378}, "KtbIlzqfs7JNja2iSp1agA": {"osm_id": "85796808", "name": "Richmond Recreation Center", "lat": 37.78324553852547, "lon": -122.47853356456}, "5_sU4SwWEIw38rlKJq0tjA": {"osm_id": "85880982", "name": "George Christopher Playground", "lat": 37.74395342922335, "lon": -122.4396419070554}, "rRWj6F2N2Y1dO4CnFzryvw": {"osm_id": "85888165", "name": "29th & Diamond Open Space", "lat": 37.74366178299795, "lon": -122.4356051063173}, "CAoSLEFGMVFpcE02UGh2aE5GUklEazNWYlhrdklGbjdNcHBmTzNoUFNUay1hU2tx": {"osm_id": "85891396", "name": "Walter Haas Playground", "lat": 37.7407, "lon": -122.43452}, "TPkrpj_4d4XeO2kgwtDzGQ": {"osm_id": "85891397", "name": "Billy Goat Hill", "lat": 37.74145613178501, "lon": -122.4330679338932}, "wfVh_PTn9kmYEZ-QnS1gXQ": {"osm_id": "85891868", "name": "Topaz Open Space", "lat": 37.74157249054485, "lon": -122.4365162124002}, "cJuhKp46PH6H4qHz4-bJ_Q": {"osm_id": "85929954", "name": "White Crane Springs Community Garden", "lat": 37.7566629065543, "lon": -122.4636573182841}, "VWN-7X8fehPHcuHd0cpdAw": {"osm_id": "86023454", "name": "Fairmount Open Space", "lat": 37.7383803829466, "lon": -122.4293431006701}, "cbbwdzisRwvw5Mg1-8lQxg": {"osm_id": "86124597", "name": "Argonne Playground", "lat": 37.77932574026618, "lon": -122.4782468268888}, "CAoSLEFGMVFpcE1IMEhvU1piUHI2N005aE95M29qcVh0UmhpaWN4TFd4bk1WY3Vw": {"osm_id": "86124618", "name": "West Portal Playground", "lat": 37.7416837, "lon": -122.4651274}, "CAoSLEFGMVFpcE42aWtMcE9IZ0Y4QTBQTk9IWXA5UFRlQkk3d2xmQzhHRlJUbDdi": {"osm_id": "86303730", "name": "Utah & 18th Mini Park", "lat": 37.7622558, "lon": -122.4060036}, "ImwRRNhHnGa3c6Ib7RLiJg": {"osm_id": "86303734", "name": "Youngblood-Coleman Playground", "lat": 37.73785780212581, "lon": -122.3844545371888}, "CAoSLEFGMVFpcFBSOVlIclF0akZWODlxNktYazRRclRqeGUwSlFEQlN1Zno3SEhm": {"osm_id": "93703754", "name": "George Sterling Park", "lat": 37.8012469, "lon": -122.4203611}, "CAoSLEFGMVFpcE1Dc2VmYkxEZlptMFJpSHdPR0FlbF8zbVpUaHA5Q0lYOGtfWDZK": {"osm_id": "99687084", "name": "Presidio Heights Playground", "lat": 37.7883402, "lon": -122.4497525}, "ZvOi5pXGCIImdQbpbKFIOQ": {"osm_id": "99687086", "name": "Laurel Hill Playground", "lat": 37.78390424614641, "lon": -122.4504102682796}, "kCHW4v0z2m-XWY7xINaKmw": {"osm_id": "103637554", "name": "Sigmund Stern Recreation Grove", "lat": 37.73581874280234, "lon": -122.4786030033234}, "_PB37SgJmhcQMzSb7QGhXA": {"osm_id": "103637565", "name": "Pine Lake Park", "lat": 37.73696453537873, "lon": -122.4874894883552}, "8-PP4CcnMMUYk-2udHgtyA": {"osm_id": "106952544", "name": "Kelloch-Velasco Park", "lat": 37.7082548409546, "lon": -122.4133188628562}, "3OQn63fAWxZErn95qO0ilA": {"osm_id": "111573499", "name": "Rolph Nicol Jr Playground", "lat": 37.73034862449903, "lon": -122.4799718184752}, "VMWa1iCnT9lz1lysnv02wA": {"osm_id": "114151111", "name": "Michelangelo Playground", "lat": 37.80136866342185, "lon": -122.417001432463}, "CAoSLEFGMVFpcE0wY0FXRW1LWmNQcXZjMUQ2eEI3bl9jeXBmNTdvVlNVMzdCSTMt": {"osm_id": "114151121", "name": "Ina Coolbrith Park", "lat": 37.798252, "lon": -122.4133003}, "2q1wKWv_XebbIURyQ6uySA": {"osm_id": "115433818", "name": "Noe & Beaver Mini Park Community Garden", "lat": 37.7650586564012, "lon": -122.4333835986416}, "CAoSLEFGMVFpcE5pRGZJSVNJaXBtUWNUb3MyWV9POFRDYTBhcTJiUm9QeDRvMjJa": {"osm_id": "116771007", "name": "Potrero Hill Recreation Center", "lat": 37.7564362, "lon": -122.3970324}, "CAoSLEFGMVFpcE9SV0hoaHgtQ3J3d1RDRkkwLV9fTVB2MHJ2cWduRjVZYmdRQWRE": {"osm_id": "118106934", "name": "Contemporary Jewish Museum", "lat": 37.7859926613483, "lon": -122.403764265898}, "Ivr7LkJLG6qccu8AkEFXRA": {"osm_id": "120479798", "name": "Pioneer Log Cabin", "lat": 37.77107224776703, "lon": -122.4750339292732}, "CAoSLEFGMVFpcFBLYjJzNU0tUTBLODU0c3QxT0MzbmhISURTVDZXdGtjUlVMN1FI": {"osm_id": "120479804", "name": "Rose Garden", "lat": 37.771792, "lon": -122.47129}, "CAoSLEFGMVFpcFBjZm4wWV9sVGstWXRsXzl1a203SUE4Ym01aThPS0NWTF9STEtX": {"osm_id": "120479810", "name": "Chinese Pavillion", "lat": 37.7684, "lon": -122.4736}, "IFQyWYMobX9L4T4n91Hm0Q": {"osm_id": "120480366", "name": "Conservatory Valley", "lat": 37.7719596053802, "lon": -122.4601871325937}, "CAoSLEFGMVFpcE5McG9qeHoxSTVqSGdGMzI2U1p4RkQxWjJXaUFHdDBiQUFyUkFw": {"osm_id": "120483945", "name": "Queen Wilhelmina Tulip Garden", "lat": 37.77027, "lon": -122.5091739}, "CAoSLEFGMVFpcE1tVm4wNE1PMFM5YkRHdmNLd09FaDlkYXNTTWdWWjR1X2VJak53": {"osm_id": "128240118", "name": "San Francisco Carousel", "lat": 37.81070630061569, "lon": -122.4106677960373}, "CAoSLEFGMVFpcE1DcWE1Q3JpSk1veHFEbVJUbDhKMEJzd3lrR1g2eG90U1FsMEF1": {"osm_id": "128241105", "name": "Golden Gate Heights Park", "lat": 37.7500343, "lon": -122.4696274}, "CAoSLEFGMVFpcE1Nd2Vic2dSdlVmeWozWDFCaDhvZE83RWNnSUpFV3F3Y2N3ZXBB": {"osm_id": "128534070", "name": "Pioneer Monument", "lat": 37.7796901, "lon": -122.4159645}, "qlTTKKMeqTFMPLTiRIWLAA": {"osm_id": "133399685", "name": "Islais Landing", "lat": 37.74650368827282, "lon": -122.3880976629558}, "yDN5kWt813QGvsmtFI5Hcg": {"osm_id": "138662530", "name": "Seward Mini Park", "lat": 37.75747871047746, "lon": -122.44003225594}, "fQF0eGkviOgkrdMXm9cLjQ": {"osm_id": "147777246", "name": "Mission Playground", "lat": 37.75933691451274, "lon": -122.4219911415398}, "CAoSLEFGMVFpcE1EVFAtLUJvSzQ3Znc4LVRLMS1MQ1ZxdTdNaG1HeFB3cm1yVld5": {"osm_id": "148288769", "name": "Rooftop Park", "lat": 37.7889786, "lon": -122.397995}, "_HusElMiy7e566dCj4RXSg": {"osm_id": "151183374", "name": "Bridgeview Garden", "lat": 37.73413713229532, "lon": -122.3938917410546}, "bozo99BcdgqTq8TzzhWaHg": {"osm_id": "151183378", "name": "Quesada Gardens", "lat": 37.73375888379147, "lon": -122.3920755236456}, "CAoSLEFGMVFpcFA3NExtZ2N1QXl4cU8yOFhteTBsRVJRQ05TYmNSZ28tUmhhNW5I": {"osm_id": "153905784", "name": "Koshland Park", "lat": 37.77327760000001, "lon": -122.4267285}, "jdY6RlK6OEecycVBTgbVHA": {"osm_id": "156681276", "name": "Community Park", "lat": 37.76092213932548, "lon": -122.4404927586201}, "JkrV540Q7KBRnZ9E8inXjw": {"osm_id": "158602261", "name": "Golden Gate Park", "lat": 37.76837063196551, "lon": -122.481841527583}, "NqNcnLJSN3bBZM4fH6ma3w": {"osm_id": "159924616", "name": "McLaren Lodge", "lat": 37.77173069249856, "lon": -122.4546832838076}, "CAoSLEFGMVFpcE1GdXdDOHRkR0RkY1FUUUdJVUFxVzVidHhuM0JBQzdLbXlOekVB": {"osm_id": "160025743", "name": "Sutro Heights Park", "lat": 37.7777214, "lon": -122.5120163}, "CAoSLEFGMVFpcFB2STVxa1B4SGs5SGNya1NmaGNONUg0T1pXa0N4WjNoa3o4ZE9B": {"osm_id": "161843741", "name": "Fay Park", "lat": 37.8029951, "lon": -122.4178977}, "1HWku8j9dDJf5gmVlHu2rA": {"osm_id": "162056252", "name": "Woh Hei Yuen Recreation Center", "lat": 37.7960093688917, "lon": -122.4104456896718}, "CAoSLEFGMVFpcE5RSlRPdllhRENlT2l6OVFmNzVMRTVZTXR6NVBOYzloTlc2OWNx": {"osm_id": "162470887", "name": "South Sunset Playground", "lat": 37.7380562, "lon": -122.4986115}, "ksp4d6GH9nJWLYZBZXLRkA": {"osm_id": "162470889", "name": "Playland at 43rd Avenue", "lat": 37.76145495048178, "lon": -122.5017168935399}, "C0Qj9QoDjt5Uf4jL6gX6Ig": {"osm_id": "162518010", "name": "Muriel Leff Mini Park", "lat": 37.78008614581776, "lon": -122.465306883999}, "1aJDMjwL_uioq6ftd9lCtw": {"osm_id": "162518012", "name": "Cabrillo Playground", "lat": 37.77290811067387, "lon": -122.4982125957638}, "_Xqev8cZykoNIAAg-oAq7w": {"osm_id": "162518014", "name": "DuPont Tennis Courts", "lat": 37.78268492212557, "lon": -122.4903064023762}, "Ba_pBI16ljupzhz6y73DOg": {"osm_id": "162651463", "name": "Merced Heights Playground", "lat": 37.71753704789147, "lon": -122.4707541443471}, "CAoSLEFGMVFpcE1ISnY5ZTJ6YVNWeWUzY0EtREM1VS1lNEdWdDAzS1lzVUV1Z2R0": {"osm_id": "164569681", "name": "Welcome Center", "lat": 37.8191966, "lon": -122.4785872}, "CAoSLEFGMVFpcE5kbnhkaW5wZThsT3JQejBBMENFVE9VSVJ3WllxbzFwNE1veUZZ": {"osm_id": "165579428", "name": "Alma", "lat": 37.8076482, "lon": -122.420638}, "CAoSLEFGMVFpcE54ZDk3RENfRGhFZW05WUdYSjFRQ196ZGstTm56S19LNk5NandN": {"osm_id": "165579429", "name": "Eureka", "lat": 37.8094984, "lon": -122.4217671}, "CAoSLEFGMVFpcE03QUhjZUE4WnB3b3ptVWJIdk5xdkJ2Sk1JaDR2NUtxU2ZlYVRU": {"osm_id": "165585930", "name": "Balclutha", "lat": 37.80984400000001, "lon": -122.422431}, "CAoSLEFGMVFpcE0tdUNMaEV3SlI1eW92Z1daaUNZSnlLeDYtalZNbllzOTdMc0Nt": {"osm_id": "165580087", "name": "Eppleton Hall", "lat": 37.8076545, "lon": -122.4207712}, "CAoSLEFGMVFpcE52dGRMcWNfU0t1ZnVpdDZvdnhwUGNzYW9EajNFZXhyRkpOOHZm": {"osm_id": "165586834", "name": "C. A. Thayer", "lat": 37.8089987, "lon": -122.4215571}, "CAoSLEFGMVFpcE9qMGNvUkp0TG9UaUs1eTlVSzhnZ1RGU2xCalFobVE5NWZZNXlR": {"osm_id": "165599948", "name": "SS Jeremiah O'Brien", "lat": 37.8111039, "lon": -122.4180223}, "CAoSLEFGMVFpcE0zbk1BY3F1TnVIMVR0QlNxNkxjZHo4VmI0NExua19qMk9HRjBZ": {"osm_id": "165601339", "name": "USS Pampanito", "lat": 37.80994289671822, "lon": -122.4163867549195}, "CAoSLEFGMVFpcE5zN2IyQTFiNlA0RXRzUTBtVmtnUm4zR29zT0FzR3pkR2ZDTU1p": {"osm_id": "165846554", "name": "Tenderloin Community Garden", "lat": 37.7806706, "lon": -122.4166721}, "CAoSK0FGMVFpcFBSQW1WVm92UHBCOHlNYWlORm9BYldXVXdzQUhudTdJS2YtaDA.": {"osm_id": "168942987", "name": "Camera Obscura", "lat": 37.7782676, "lon": -122.5142391}, "CAoSLEFGMVFpcE85Z2hZMm5Md1prU3g4UGJ6RHlDdUFoUEkybmt3ZlVLcTF4UWtf": {"osm_id": "172250597", "name": "Caldwell Synder Gallery", "lat": 37.7893665249124, "lon": -122.405837613489}, "kt9zh2bdmeSq_ldLhRJdGg": {"osm_id": "172250619", "name": "Langton Community Garden", "lat": 37.77739513524968, "lon": -122.4097511073198}, "CAoSLEFGMVFpcFA2WVZ6VEkwYS02YjdlbzV3OWlHcXpERjNsU0xZd3dmVWJkYXp1": {"osm_id": "173886707", "name": "American Bookbinders Museum", "lat": 37.78129495216135, "lon": -122.4027609499729}, "CAoSK0FGMVFpcE14SzdoMG9EMUlTd0hQQ0EzZVN3MTJJY2duZVZJcG1RaHpHUEU.": {"osm_id": "174814076", "name": "Statue of Christopher Columbus", "lat": 37.8028575, "lon": -122.4059887}, "FMEfqbTm1lVHOZiIMa4X_A": {"osm_id": "174826283", "name": "Rincon Hill Dog Park", "lat": 37.78592527255119, "lon": -122.3901602153184}, "CAoSLEFGMVFpcE40MkVzd2ljeXJOU0E3VXo2VGFUNlk3NEp1TGktMWE4VVJHcTBh": {"osm_id": "174999601", "name": "Mohatama Gandhi Statue", "lat": 37.795336, "lon": -122.3923965}, "CAoSLEFGMVFpcE5DQm5UVW42TVF1Y04xOC1hV1lsbW1reUEySmx2OE11RlRIMHJy": {"osm_id": "175010375", "name": "Cupid's Span", "lat": 37.7915399, "lon": -122.3899779}, "VjEgxnwS6onsua5aOZH5Gw": {"osm_id": "175516006", "name": "Sue Bierman Park", "lat": 37.79602678161419, "lon": -122.3956432737906}, "H5YD1-WQAR2ZuYJmMcaSKg": {"osm_id": "184539480", "name": "Showplace Triangle", "lat": 37.76657391440951, "lon": -122.3995143654311}, "CAoSLEFGMVFpcE40RmdTUnktWnA4MUFIZlIyb0JRaWdxXzZpbGcyOTdZWjZrNHVH": {"osm_id": "186071977", "name": "Pier 24", "lat": 37.7892825, "lon": -122.3876285}, "bwFAmYRgL-unKrrZnZQjzg": {"osm_id": "188964530", "name": "Jane Warner Plaza", "lat": 37.76255720461054, "lon": -122.434995019383}, "F_fogG6Tv0BCOmBLwpFuSg": {"osm_id": "188964531", "name": "San Jose/Guerrero Park", "lat": 37.74569689471912, "lon": -122.4219697110385}, "n_kAV2-FJdDUkziypg-Wlg": {"osm_id": "188964533", "name": "Naples Green", "lat": 37.71402065272336, "lon": -122.4363914487919}, "LOXRn6TxbrkZdJAfK1j65w": {"osm_id": "188964535", "name": "Naples Green", "lat": 37.71374699890882, "lon": -122.4364345631027}, "LAwoWg4hD47wiSoGayraSw": {"osm_id": "188972006", "name": "236 Townsend Parklet", "lat": 37.77816245768647, "lon": -122.3936725381034}, "CB0DYyKV0EF0XmCVrKbsbQ": {"osm_id": "188973375", "name": "1315 18th Street Parklet", "lat": 37.76262190920928, "lon": -122.3959454499997}, "CAoSLEFGMVFpcFBDWGMzdjdWVUx5RDgxaFhmVldNV01FUXB6Ty1OYkQ1cjdlemxY": {"osm_id": "193055100", "name": "Brooks Park", "lat": 37.7174538, "lon": -122.4671963}, "0L_v1m4jhV5FWbJkv0CW2g": {"osm_id": "195274553", "name": "Cayuga & Lamartine mini park", "lat": 37.73055582273938, "lon": -122.4330817029078}, "LUSjM_wZFHsE_RQIbjyRbA": {"osm_id": "199829618", "name": "Pier 39", "lat": 37.81008109450158, "lon": -122.4101926611298}, "oxuzHUlPrg2Yza9mxvYFeg": {"osm_id": "205644314", "name": "F.A.R.M.", "lat": 37.76748049315814, "lon": -122.400221720795}, "CAoSLEFGMVFpcE1qOVNuS1p4a0d0V1MzdU9uSWNYUVBUd251TEhEM2NkbnNzVDc1": {"osm_id": "205655753", "name": "CCA Wattis Institute for Contemporary Arts", "lat": 37.765341957304, "lon": -122.40404015529}, "CAoSLEFGMVFpcE1CT0tPbHJ2V3Zlb29SMkJoV1hpU0l2M1EzREVCbHo2d1F0TGU2": {"osm_id": "206662303", "name": "Alhambra Theatre", "lat": 37.7983132, "lon": -122.4219018}, "CAoSLEFGMVFpcE12d3BLSTBDN2cwdXd0Q1ItZXU4NGdwdmlOM3BNdGJCMC1RZ2NZ": {"osm_id": "207811319", "name": "Brannan Street Wharf", "lat": 37.78395630000001, "lon": -122.3877489}, "RlTJnFdXDP63T8PbLlckkw": {"osm_id": "217583813", "name": "Little Hollywood Park", "lat": 37.71033966424415, "lon": -122.3980488178491}, "CAoSLEFGMVFpcE84NHFxa3BQMzJCTlhiR0VzWl9xVXctdmtBWFZaVXB5N0dfcm00": {"osm_id": "218917064", "name": "Sunnyside Conservatory", "lat": 37.7319492, "lon": -122.440792}, "CAoSLEFGMVFpcE8zaDBsei1tOG5Lc3RnMHRCMDE3d19KbXpRSlhORDN3ZkVpN0t4": {"osm_id": "219036309", "name": "Pink Triangle Memorial", "lat": 37.7623711, "lon": -122.4361496}, "7t-TGgnRdZxZgzYJpBq_SA": {"osm_id": "219166342", "name": "Baden-Joost Mini Park", "lat": 37.73311178314072, "lon": -122.4408756741297}, "JAubbhU6ko_VNkorNxvHWg": {"osm_id": "222822105", "name": "Coso Square", "lat": 37.74629489316019, "lon": -122.4180474235746}, "pONPFp96MnIMPCeD29MlrQ": {"osm_id": "224832526", "name": "Ballast", "lat": 37.76888260201809, "lon": -122.389924062425}, "_cDNC4M7LRe9apqGJzmfTA": {"osm_id": "224832528", "name": "Ballast", "lat": 37.76887079884736, "lon": -122.3905215316777}, "CAoSLEFGMVFpcE9JU2FuMy1ZazhMUkM3ZXM1YV9lbFN2TDgta3Q4YTRxY1JHbzZj": {"osm_id": "224941774", "name": "Pioneer Park", "lat": 37.8024826, "lon": -122.4059525}, "jOAYL0nKwV2PRhoBJi4m9A": {"osm_id": "225182880", "name": "Corona Heights Park", "lat": 37.76486494969315, "lon": -122.4387728102632}, "CAoSLEFGMVFpcE1iSGRkRUxOb24xc1pYS19odXFrSFdmSFZPVDEtaFUzOXRaNy1C": {"osm_id": "225526801", "name": "Harvey Milk Plaza", "lat": 37.7623444, "lon": -122.4356003}, "CAoSLEFGMVFpcFB6SlVPM09tMV9hTWw3cWZBcHdiaElQNHVBaXZUdTZHaGkzS2pD": {"osm_id": "226290099", "name": "Sunnyside Playground", "lat": 37.7336123, "lon": -122.4476973}, "gY7LlBXXiFtz206gfkatGA": {"osm_id": "231596854", "name": "Filbert Steps", "lat": 37.80210256040408, "lon": -122.4038228153273}, "KnbaHDHgvppaGL44iozywg": {"osm_id": "233459930", "name": "India Basin Open Space", "lat": 37.73297094249246, "lon": -122.3721191858085}, "CAoSLEFGMVFpcFBHeVlfdnVYT3pycXVjYWVuaHJic1RrZWFtWUJoVWx4T0VMQ2V6": {"osm_id": "244058230", "name": "Gene Friend Recreation Center", "lat": 37.7786066, "lon": -122.4064377}, "CAoSLEFGMVFpcE1yclhoNW5OampfaXY0U1NnNkxtaTBuZ0lNMzBHb3FFd1pUUDU2": {"osm_id": "251442759", "name": "Dog Play Area", "lat": 37.7696379, "lon": -122.4326116}, "9lqY0-oTDzErNNV7qnXysQ": {"osm_id": "255475804", "name": "Community Garden", "lat": 37.74508908807822, "lon": -122.4412879633622}, "CAoSLEFGMVFpcFA0Y1piMUpyaG1TUGVJQTZpVEhyVnZqcXVjeFJIMzlyak5GYlVj": {"osm_id": "256784864", "name": "Noe Valley Town Square", "lat": 37.7514696, "lon": -122.4289842}, "CAoSLEFGMVFpcE16cTBKVHdaZWc3dHA1SEl5QTRFVm5UbUd3N0Y0eTl2ZkQzLU9J": {"osm_id": "256993595", "name": "Haas-Lilienthal House", "lat": 37.7932392807747, "lon": -122.424985022559}, "slDg28T2IWOE_CusTmj_rg": {"osm_id": "257035814", "name": "Community Garden", "lat": 37.77714629147857, "lon": -122.4066932310648}, "Vs2E7Glurgs_DLcKTBPY0A": {"osm_id": "257161335", "name": "Potrero Del Sol Community Garden", "lat": 37.74974672822908, "lon": -122.4054478266582}, "kmL-3YtLGeHRfPWEU3I6VA": {"osm_id": "257163595", "name": "Michelangelo Community Garden", "lat": 37.80135317192006, "lon": -122.4171113553499}, "x7KaM3e3-nJqL2h882p2GA": {"osm_id": "257177768", "name": "Arlington Community Garden", "lat": 37.73697149705075, "lon": -122.4263909554655}, "CAoSLEFGMVFpcE1wN05GQk9tUGtqUUJaNVgxS1FsSkhtbkNJRWx6NWc0eFB5Q0tl": {"osm_id": "257177970", "name": "Bernal Heights Community Garden", "lat": 37.7422442, "lon": -122.4131923}, "ffr47i1J7EozYbb4ql7JUQ": {"osm_id": "257178822", "name": "Ogden Terrace Community Garden", "lat": 37.73583288112265, "lon": -122.4123715177371}, "g-uHcx4XHbiO2CTj_25oiA": {"osm_id": "257180752", "name": "Alioto Community Garden", "lat": 37.75868977711056, "lon": -122.4182360707305}, "ezsHzBuMFb_rusmygMcbWA": {"osm_id": "257182717", "name": "Visitacion Valley Greenway Community Garden", "lat": 37.7142825661825, "lon": -122.4056052963716}, "CAoSLEFGMVFpcE9iUU5STGlTQXZCbV81WDlqSmdneENoN0lOc2dMT2dtZzM2aklp": {"osm_id": "257182718", "name": "Brooks Park Community Garden", "lat": 37.7175055, "lon": -122.4662091}, "IDbT680AVsKFlPVYTpxgkA": {"osm_id": "257183576", "name": "Golden Gate Park Community Garden", "lat": 37.76596035605233, "lon": -122.4574686020079}, "CAoSLEFGMVFpcE1iZGxMVU54bmNkLTUySlU5T2FJa016ZW1iaDZFVW9XMnExMGJG": {"osm_id": "257183688", "name": "Brewster-Rutledge (Miller Memorial) Community Garden", "lat": 37.7450373, "lon": -122.4070453}, "Pu4-cMPyAJ9j20_NSXjOVQ": {"osm_id": "257183758", "name": "Wolfe Lane Community Garden", "lat": 37.74519639682202, "lon": -122.4066046444935}, "CAoSLEFGMVFpcFAzdUZQY0NNYlU5cFpybU9rTUdCUzF0Y3ZwSWlndjQwWEpvNTlB": {"osm_id": "257344295", "name": "Agua Vista Park", "lat": 37.76615090000001, "lon": -122.3861248}, "DiGbAiC3iYg843elTrqPfQ": {"osm_id": "259774228", "name": "Coleridge Mini Park", "lat": 37.7442906041472, "lon": -122.4193677737184}, "S_HtDYhTfvykt2xNMNmgdQ": {"osm_id": "259775230", "name": "Coleridge Park", "lat": 37.74314480783133, "lon": -122.4201054999256}, "7qEf7IsTRpjkbgqWLRr_6Q": {"osm_id": "259849026", "name": "Argonne Community Garden", "lat": 37.77402732178091, "lon": -122.4735216739843}, "CAoSLEFGMVFpcFBjVkhmX1R0bDNkWnJyQUJUVkpYdjEtSi1CeGhjS2V0Sm5DQmZa": {"osm_id": "261129576", "name": "Midtown Terrace Park and Sutro Recreation Center", "lat": 37.7515399, "lon": -122.4554054}, "CAoSK0FGMVFpcFByck1pek4zOUJXc1RZQWo2QWp2M3A1c0NPdlFvMlE3cDJqVVk.": {"osm_id": "261988292", "name": "Transamerica Redwood Park", "lat": 37.79522170000001, "lon": -122.40233}, "f3rrb_SxLVNIUCZse7dYmA": {"osm_id": "263509886", "name": "John Wickett Museum of Exotica", "lat": 37.78468430136999, "lon": -122.4443829319286}, "Fson7OJDdhw_uJU16jYl3g": {"osm_id": "266694696", "name": "Woods Yard Park", "lat": 37.75780745363453, "lon": -122.3906885320258}, "CAoSLEFGMVFpcFBURkxRTlU2NHRyM1l3enNUVGViX1N5WkJjLTRJUk9mU1BSWVI2": {"osm_id": "272711313", "name": "Hippie Hill", "lat": 37.7699029, "lon": -122.4580763}, "544KydUWA9D-cZyw9tsb1Q": {"osm_id": "273575059", "name": "Gadar Memorial", "lat": 37.78365982983031, "lon": -122.449369005854}, "jUINteIbEhP-bl8UJDek1Q": {"osm_id": "278139342", "name": "Green Hairstreak Corridor - Quintara Steps", "lat": 37.7488963674588, "lon": -122.4716841191807}, "3xFIBWLPxxqqDDnedmWwYg": {"osm_id": "278139776", "name": "Green Hairstreak Corridor - 14th Avenue & Pacheco", "lat": 37.75229309427023, "lon": -122.4708617651517}, "4RRPDcucXEgaR5o0rfRGjA": {"osm_id": "278139938", "name": "Green Hairstreak Corridor - 12th and Pacheco", "lat": 37.7519737715145, "lon": -122.4688502915369}, "qmWztwkTVra9z8e97Xzn9w": {"osm_id": "278140586", "name": "Green Hairstreak Corridor - Aerial Steps (access point)", "lat": 37.75233318416591, "lon": -122.4706983473214}, "3gSSHUQd6sXIEh62cCO2kQ": {"osm_id": "278140657", "name": "Green Hairstreak Corridor - Aloha & Lomita", "lat": 37.75803453483314, "lon": -122.4727838056847}, "G0MP3SuVhP4k3zVazNzFZQ": {"osm_id": "278140838", "name": "Green Hairstreak Corridor - Mount Steps (access point)", "lat": 37.75421459769325, "lon": -122.4710453939731}, "CAoSLEFGMVFpcE9sZExOYU00a3VuVElGWkx3ZXpJclh1anBfNXFSMXhKVFVuUjZv": {"osm_id": "281243360", "name": "Santa Rosa", "lat": 37.798381, "lon": -122.3952337}, "O9O_8SbkBc02osaRclZRew": {"osm_id": "281243626", "name": "San Francisco Belle", "lat": 37.79907840200552, "lon": -122.39457160322}, "CAoSLEFGMVFpcE1uRHZYQkE0TFhUQWFYSG0tOThKdXVWZlU3aWI0cTJMX0pxT3Mw": {"osm_id": "284764947", "name": "Civic Center Plaza", "lat": 37.7795371, "lon": -122.4176952}, "jIgsKOsaAEmb40mhnWVfbg": {"osm_id": "287910488", "name": "South American Tropical Rainforest & Aviary", "lat": 37.73401047339078, "lon": -122.5010425440373}, "CAoSLEFGMVFpcFBvenQ4dFladVpoSUtNQkZOODd6YzRIZ3lqaE1KbjVpRXZkaFZz": {"osm_id": "287921407", "name": "Dutch Windmill", "lat": 37.7703867, "lon": -122.5094399}, "CAoSLEFGMVFpcE5qc1hCNWJEVS13dngtdnRDWmgxWGo4WnpMZExVNTc5N29iWHhk": {"osm_id": "287927001", "name": "Anglers Lodge", "lat": 37.768001248729, "lon": -122.49657092459}, "CAoSLEFGMVFpcFAwUU1TajMyMkF1N1RadnpkdW1MN2NkX0xzQXhHdnFoc2k1ZVpt": {"osm_id": "287927026", "name": "Murphy Windmill", "lat": 37.764966, "lon": -122.508676}, "CAoSLEFGMVFpcE9naUptSFNmMkpEbjFORVJNQ3FpdkN0QXZTUjhmaW1ndGUwdUhk": {"osm_id": "288305388", "name": "Legion of Honor", "lat": 37.7845236974323, "lon": -122.500803749053}, "CAoSLEFGMVFpcFBycEpPMHZPZVRPSGdhZWVxXzA4QXBQMjBnN0tkYUtRT1hTaGtl": {"osm_id": "288340246", "name": "Walt Disney Family Museum", "lat": 37.8013707483417, "lon": -122.458683153401}, "4zZTwZneJskDUTmUTwBwiA": {"osm_id": "288365549", "name": "Greater Farallones Marine Sanctuary Visitor Center", "lat": 37.80549773454159, "lon": -122.4669146175903}, "CAoSLEFGMVFpcE9HMDZOTDd4VFBDYV9VNm1hZExyWF9xZWl0Q241TXJueV9ZbTFY": {"osm_id": "288371295", "name": "Palace of Fine Arts", "lat": 37.8028347, "lon": -122.4483876}, "CAoSLEFGMVFpcFBKNWE2SkZzX2lYSjZXLUNFQ045SUhuTS1LSTFsVFRuU2Yyb2dw": {"osm_id": "288396169", "name": "Aquarium of the Bay", "lat": 37.8087243, "lon": -122.4093615}, "CAoSLEFGMVFpcE5TUzF2a2M2SFctbHRoNndKWUFuXzRaeGNNa1FabWVtdkpsM2pN": {"osm_id": "288473102", "name": "Ripley's Believe it or Not", "lat": 37.808086, "lon": -122.4154515}, "CAoSLEFGMVFpcE1XaWhBcEVEOVNRem95OFU4MUdNM1pWcGZUWEdOSlZxeDVoX1Bi": {"osm_id": "288716388", "name": "Children's Creativity Museum", "lat": 37.7830659037461, "lon": -122.40166861823}, "yMGoa16ChcdI8m5HUQGBYQ": {"osm_id": "295143237", "name": "Angel Island State Park", "lat": 37.86152529416802, "lon": -122.434910213529}, "CAoSLEFGMVFpcE5PNVJJeGRBaFRlWThHNmhFVjBoYzVBN3NNenh6NmJVUzF2NVVR": {"osm_id": "306787829", "name": "Starr King Open Space", "lat": 37.753469, "lon": -122.40025}, "d6xRcXiXxn7E0vTh7-4x2A": {"osm_id": "310027918", "name": "McCoppin Hub", "lat": 37.77155192492256, "lon": -122.423099731948}, "Lut2-SoLva2hqEPCKxU5MQ": {"osm_id": "330694199", "name": "Palou Community Garden", "lat": 37.73688687949873, "lon": -122.3955363536827}, "524w0bb99_Q4fiISvoaWDQ": {"osm_id": "330694868", "name": "Latona Community Garden", "lat": 37.73101652731479, "lon": -122.3927232008101}, "CAoSLEFGMVFpcFB3LXFMbWFNV2tOYjhnS3pacmtlaTRsd3YxZjFzcjZPUzl0RS00": {"osm_id": "330697238", "name": "Florence Fang Asian Community Garden", "lat": 37.73070269999999, "lon": -122.3958987}, "uNZuLdRYp3BvxwIhWWQXhA": {"osm_id": "338698526", "name": "Garden of Remembrance", "lat": 37.72245510439662, "lon": -122.4791398094983}, "8ZlfP73zHmUYk2zZguhXug": {"osm_id": "338698713", "name": "HSS Courtyard", "lat": 37.72215528506883, "lon": -122.4764853100786}, "2BCs6vW5TFZukte-rcvRcA": {"osm_id": "338699344", "name": "Habitat Garden", "lat": 37.72586699491897, "lon": -122.4818534458025}, "wBAx1JwfOb0uV-BmrCHGfw": {"osm_id": "338699345", "name": "Habitat Garden", "lat": 37.72577862998652, "lon": -122.4816540313582}, "UdqHBIlr99jS0lFdHlIodQ": {"osm_id": "338699346", "name": "Habitat Garden", "lat": 37.72591289470054, "lon": -122.4819572551632}, "fqI9BpAIRZgBjYxqi17xng": {"osm_id": "338699347", "name": "Habitat Garden", "lat": 37.72595765569681, "lon": -122.4820583871449}, "rALArJc6ifnJE2joI2g6EQ": {"osm_id": "349439374", "name": "Systems", "lat": 37.77108155863212, "lon": -122.3993254253758}, "bVx1_Fa4QDLfEjthv3T0PA": {"osm_id": "352690312", "name": "Mariposa Park", "lat": 37.76498609807248, "lon": -122.3916998638782}, "CAoSLEFGMVFpcE9ZNXlZUXBlb2RiSU8wZ29pWE1pRmhncDJhVG40SHpTQ3JOZkdk": {"osm_id": "353551814", "name": "Murphy Playground", "lat": 37.751604, "lon": -122.4652044}, "rs4hSQVCrWev91SclYHIiw": {"osm_id": "363667951", "name": "Alice Fong Yu School Garden", "lat": 37.75829853645387, "lon": -122.4694727918234}, "CAoSLEFGMVFpcE12UHE2ZnAxQjdlQWdXV3MtZzBoanh1SWJMdHgxMDhkZGdLcTRY": {"osm_id": "367545863", "name": "Shakespeare Garden", "lat": 37.7688324, "lon": -122.4670411}, "TjIsjEzwFabpT32A8qbZdA": {"osm_id": "369601560", "name": "Benches Garden", "lat": 37.7619751992592, "lon": -122.4052248449923}, "wolzFLRjP10BJxjanfyf8A": {"osm_id": "369601721", "name": "Community Garden", "lat": 37.76364245459924, "lon": -122.4002594047938}, "-Fsh5ffqDdtSLjc1qH3NfQ": {"osm_id": "370570059", "name": "Valley Ford Franklin School Road", "lat": 38.309797278199, "lon": -122.9359168619436}, "Gw55CRjhmToY5Imeb6GVRg": {"osm_id": "370672707", "name": "Golden Gate Bridge", "lat": 37.82239100816189, "lon": -122.4788992403153}, "i_GmpMdhPSdNH6qaokzZrw": {"osm_id": "375333476", "name": "Walter Haas Dog Park", "lat": 37.74057284937594, "lon": -122.435601131821}, "CAoSLEFGMVFpcE9NR2tCZ1pESVJCb2ZLUFFOT2FxZHpKaWNmZmUyeEdVSU1QOGpm": {"osm_id": "375747149", "name": "Mission Bay Childrens Park", "lat": 37.7721045, "lon": -122.3927798}, "74hrUR1dd002majXhVhryA": {"osm_id": "381074858", "name": "Bernal Recreation Center", "lat": 37.73842453869656, "lon": -122.4165308886162}, "tEEmgrLmFeQt-9rxBJdckA": {"osm_id": "382085366", "name": "Progress Park", "lat": 37.75372998366289, "lon": -122.3912279102226}, "y3uCsaa5eCpECBoIh3qXBA": {"osm_id": "382085619", "name": "Progress Park", "lat": 37.75320675192486, "lon": -122.3909349694262}, "CAoSLEFGMVFpcE5nM1NGd2pSZk1LYVhGMGlwRlhxZ3hOR1dWN21JMWE3NjFCLVZi": {"osm_id": "382796784", "name": "AFRICAN REGION", "lat": 37.7318967, "lon": -122.504911}, "iFlLxVEtDzO0HdJNHRSeWA": {"osm_id": "382796785", "name": "Gorilla Preserve", "lat": 37.73162697977972, "lon": -122.5048015731439}, "CAoSLEFGMVFpcE9oNVp1MzVUUF8zaVhRSDdMS0M1Q2pMV0VqWXQtN2Y0dXJjbk1j": {"osm_id": "382796787", "name": "African Aviary", "lat": 37.7317767, "lon": -122.5046189}, "X-kOiNckMVKNY46lMkx0cA": {"osm_id": "382796788", "name": "Mandrill", "lat": 37.73263672123868, "lon": -122.5037911573316}, "Bgcrl9uODzaL-3P8nWs5SA": {"osm_id": "382796789", "name": "Patas Monkey", "lat": 37.73257747988029, "lon": -122.503263862438}, "CAoSLEFGMVFpcE9UZTBlNUV3eGNXaEplc3hhS282Njh0Y3RfMndrdTF3N0ZtanJV": {"osm_id": "382796793", "name": "African Savana", "lat": 37.7328067, "lon": -122.5020501}, "y2ItTNfj3EcP3xl0Dkdwnw": {"osm_id": "382798029", "name": "Lemur Forest", "lat": 37.73294796787923, "lon": -122.5040699494204}, "i1poY2XekEvJdaF7tiO-qw": {"osm_id": "382798030", "name": "Family Farm", "lat": 37.73460463047628, "lon": -122.5046424519198}, "icryrEGiQv4bx1ZB1RNeOw": {"osm_id": "382798031", "name": "Meerkat", "lat": 37.73435870174822, "lon": -122.5039995213234}, "vlwqwIuUQzk249rk6sstIQ": {"osm_id": "382798032", "name": "Prairie Dog", "lat": 37.7342277201654, "lon": -122.5039537888837}, "w4m8UvhKBXrvk5EDm2b4oA": {"osm_id": "382798035", "name": "Flamingo", "lat": 37.73352512145713, "lon": -122.5034185525897}, "Rp-7X84dVxnZjYhkHE3-3A": {"osm_id": "382801491", "name": "Red Panda Treehouse", "lat": 37.73396067322572, "lon": -122.504372237901}, "2iTzvZszX1O2Iele96WBzw": {"osm_id": "382803059", "name": "Chimpanzee", "lat": 37.73327545671748, "lon": -122.5029325223535}, "h28BJwKP-Ug2qYVG-gbl0A": {"osm_id": "382803073", "name": "River Otter", "lat": 37.73245281338909, "lon": -122.5022391460815}, "CAoSLEFGMVFpcE1RUlIxN25VdTN3X0pzNTBkZkgyb294RHpkemd1MHlvQUtlalp6": {"osm_id": "382805054", "name": "Grizzly Gulch", "lat": 37.7328067, "lon": -122.5020501}, "MR1ZS99MTmQMBRfUlRnREQ": {"osm_id": "382805057", "name": "Eagle Island", "lat": 37.73266135890933, "lon": -122.4989336920666}, "UZPb7ZgCY3epZ-5Lb9Ri9w": {"osm_id": "382813682", "name": "Puente al Sur", "lat": 37.73332606175568, "lon": -122.5008275989531}, "CAoSLEFGMVFpcFBydmhwQXQtMmY0dDM5azQwVlFKdE9MdGNoYnZQNTZCNV8wODhp": {"osm_id": "382813683", "name": "Chacoan Peccary", "lat": 37.7326001, "lon": -122.4994801}, "6Y35FH1KMXKCqq4OvZ3gjA": {"osm_id": "382816207", "name": "Greenie's Conservation Corner", "lat": 37.73235983936619, "lon": -122.5027339162831}, "CAoSLEFGMVFpcE94Z1ZWZDJLUXZNNXo2MElhTkVhQkdaOUFVVWdvSlZBbWlZUUZ2": {"osm_id": "382816208", "name": "Snow Leopard", "lat": 37.7320229, "lon": -122.5011517}, "uLLaWeZv6dE2sN6HXyfnKg": {"osm_id": "382818430", "name": "Black Rhino", "lat": 37.73167565301225, "lon": -122.501646201285}, "qEtwy31TgUp2sRBQ5OrZQg": {"osm_id": "382818432", "name": "Hippo", "lat": 37.73168879642409, "lon": -122.5014717096522}, "Uv1H1Ey-AaSBtqvWKqqNzA": {"osm_id": "382818435", "name": "Bongo", "lat": 37.73178852665284, "lon": -122.5021771746942}, "9_her13T_lfr8iaGQ5tozw": {"osm_id": "382822565", "name": "Hornbill", "lat": 37.7336306703885, "lon": -122.5022503349088}, "XJnVJxfk38ABdaXAzOMyAQ": {"osm_id": "382822566", "name": "Pelican Beach", "lat": 37.73376870177525, "lon": -122.5022328912698}, "c98FuI6pWj-v2c3cPj126w": {"osm_id": "382822567", "name": "Cassowary", "lat": 37.73467925743228, "lon": -122.5018812588727}, "CAoSLEFGMVFpcE12NUpBT3JBWTBzaEd0dHZRMjZjb2h2TnFqOUotNWJvY2dMOFQt": {"osm_id": "382822568", "name": "Australian WalkAbout", "lat": 37.7348174, "lon": -122.5023316}, "bePhOLLRpUTMC_F2Ll5mgA": {"osm_id": "382822569", "name": "Wolverine", "lat": 37.73318780337357, "lon": -122.5017264547499}, "CAoSLEFGMVFpcE45VGVMaWo5STdRWEJudXNfRmlQSWIxYW9UaFphc2c3UmtDOHlT": {"osm_id": "382826072", "name": "Prehistoric Garden", "lat": 37.7340657, "lon": -122.5012081}, "CAoSLEFGMVFpcFBNamV0cGdJYjZTTXdUcmozb1ZFZGlGOGVmTUkwZklxRTVQUTkz": {"osm_id": "382826076", "name": "Bobcat", "lat": 37.7323276, "lon": -122.5010046}, "af5JGlu1eMZI7x8RQWKtog": {"osm_id": "386536596", "name": "Fulton St Parklet", "lat": 37.77682393154819, "lon": -122.4384964259954}, "BwO-ocu1tzwdcvr4gDLFnw": {"osm_id": "386536597", "name": "Cafe Mojo Parklet", "lat": 37.77558740411714, "lon": -122.4379864936826}, "CAoSLEFGMVFpcE9IeUJjampwLVVFazJyaFVmazQyaENRWHFtMGxLZ3pVeTJwNUxB": {"osm_id": "389128196", "name": "Golden Gate Park Dog Training Area", "lat": 37.7709443, "lon": -122.4995873}, "uWV8OgMaqCX4UfiSYRFpEA": {"osm_id": "389247006", "name": "Randolph & Bright Mini Park", "lat": 37.71451775738849, "lon": -122.4635280953015}, "dOq0v1GdX7TnnFiyankjOw": {"osm_id": "389247009", "name": "Lessing & Sears Mini Park", "lat": 37.70876262934031, "lon": -122.4555285708845}, "1Wn2ZOU6v8CX0d1E5Y4t-Q": {"osm_id": "389262420", "name": "Visitacion Valley Playground", "lat": 37.71240088345452, "lon": -122.408548605632}, "jozpYDjcT_MdyTBumycJ1w": {"osm_id": "389262854", "name": "Visitacion Valley Greenway", "lat": 37.71513356807137, "lon": -122.4057959536781}, "GLALFO1iXV0YwfPR5l24Gg": {"osm_id": "389991180", "name": "Hayes Valley Playground", "lat": 37.77632849646267, "lon": -122.4274197440783}, "CAoSLEFGMVFpcE85Z3FpYjRKMzlySVFiVXBKUG9QLUg0VU8tSUJ3RlRwd3JRZTZV": {"osm_id": "393263687", "name": "Saint Mary's Playground", "lat": 37.7334829, "lon": -122.4214767}, "CAoSLEFGMVFpcE9kWXU2V3hqUlRPQ2gwSmZnOXBSLUJZLW9wbGdKSW8xQzdFQk96": {"osm_id": "393275322", "name": "Jeanne d\u2019Arc", "lat": 37.7846691673465, "lon": -122.499864337358}, "UITOodyWBP_ZHtnzgYhzJg": {"osm_id": "393275338", "name": "El Cid Campeador", "lat": 37.78530733498833, "lon": -122.5003832156453}, "CAoSLEFGMVFpcFBpZ283ZklGekpaM2NIVFJUMHM0NHN0ckRpR3hwN0VpbWx4WWdP": {"osm_id": "396637684", "name": "Lakeview and Ashton Mini Park", "lat": 37.7181228, "lon": -122.4626964}, "V4kqgxYdDGJ9CJHjd7MSdQ": {"osm_id": "400948942", "name": "La Playa Park", "lat": 37.76055621516655, "lon": -122.5091786872111}, "CAoSLEFGMVFpcFBwbGx6NElyeXF2WlhmRVdBSVBLVVVmWmg4TEdnTUdkR1dQRDk4": {"osm_id": "401354283", "name": "Mountain Lake Park", "lat": 37.78708857544268, "lon": -122.4712518834236}, "gG7eHtVifluauyuRxXjqMQ": {"osm_id": "401508551", "name": "Miraloma Playground", "lat": 37.73844680144402, "lon": -122.4489111339249}, "lIxXVQFlEbpmhC38KpREwA": {"osm_id": "402061421", "name": "Grand View Park", "lat": 37.75645718050941, "lon": -122.4719489390461}, "CAoSLEFGMVFpcE45cWtlX3RWcEQ1X1IyVmhLYU1JWkZNV1o0OWNZYWd6amxPanBv": {"osm_id": "402100693", "name": "Dahlia Garden", "lat": 37.7725201, "lon": -122.4592788}, "CAoSLEFGMVFpcE1MbzhZSnd6UllrR3otbmd2MlFJX0F2RDdEdG0xVkQyLXl6YUhQ": {"osm_id": "402111597", "name": "Lombard Street", "lat": 37.8020587006651, "lon": -122.4194816445193}, "x3RfuZlaPJSIiJgLNG3xzA": {"osm_id": "402978882", "name": "Larsen Park", "lat": 37.73961125837222, "lon": -122.475515870216}, "z5htmEIIcj5-ba5Huz9ADQ": {"osm_id": "404862894", "name": "Lions & Tiger Yards", "lat": 37.7317699596948, "lon": -122.5016139288903}, "CAoSLEFGMVFpcFBnWjRLLU5wZnFyRk1CbTg4aW44bk5UQ0hCcGVBSklKZXdncHBr": {"osm_id": "412695135", "name": "Emerald Park", "lat": 37.7867231, "lon": -122.3916802}, "cyoAe3mRh8tuOyzZcdGxQA": {"osm_id": "414033716", "name": "Hilltop Park", "lat": 37.7332406205846, "lon": -122.3834178938239}, "CAoSLEFGMVFpcE5oSE9zczZGeDBmUHFaUGQ5bmEtQTBuUUg1SlRqNzlDT2lhRTJk": {"osm_id": "414034499", "name": "Flights of Fancy", "lat": 37.7306982167201, "lon": -122.373927589955}, "eTyWSKr-pv0FxJb2wi2Isw": {"osm_id": "414035066", "name": "Mansell Parkway", "lat": 37.72050889813153, "lon": -122.4046422383379}, "KXwzHKmm_DcchswAYqq9yA": {"osm_id": "414035525", "name": "Shoreview Park", "lat": 37.73161390792016, "lon": -122.3813698189308}, "CAoSLEFGMVFpcE9ZR0JpVWJ1Y0c1VjVDWV9Hc3JuT2kwaTdFcTBJdXpNZTJpWEgy": {"osm_id": "414887522", "name": "In Chan Kaajal Park", "lat": 37.7639631, "lon": -122.4157476}, "74ubdB6AiQvSM1757kykxg": {"osm_id": "417184097", "name": "Joby's Dog Run", "lat": 37.74285250219204, "lon": -122.4273536413}, "VvgPc1uFWgb-1J5nJzLZLg": {"osm_id": "427290255", "name": "Crocker Amazon Community Garden", "lat": 37.71307125299662, "lon": -122.4330399696856}, "35AqRSZ67X143j_kpNCsow": {"osm_id": "429792025", "name": "Tara Street Park", "lat": 37.7212448085595, "lon": -122.4484775360014}, "LBcEunKLM1XpI4BCUQTfzw": {"osm_id": "430142467", "name": "Wilde Overlook Tower", "lat": 37.71908232726432, "lon": -122.4101139984357}, "CAoSLEFGMVFpcE1WbkVtS21IR2tNaHpnQ0YxWTJMNkhIZWFvbkd1a0l4UDZ2OUZZ": {"osm_id": "432386653", "name": "Athens Avalon Greens Terace", "lat": 37.7249679726759, "lon": -122.4259183798587}, "NjIP1VE6tzkII2Ocnqb3VA": {"osm_id": "443135450", "name": "Bayview Gateway", "lat": 37.74649626873871, "lon": -122.3871501771197}, "CAoSLEFGMVFpcFBzaEc4anVKM3o5emtDeXRoWlVvM05lQXNuSTlnUzVNT2pqY2FI": {"osm_id": "444230154", "name": "Hamon Tower", "lat": 37.7721103, "lon": -122.4683959}, "CAoSLEFGMVFpcE01WnRubTVQZDJ1RVFrUEV0NU03MUNrT2ZlZnpJUWg3cjhXR1Va": {"osm_id": "446183018", "name": "Parklab", "lat": 37.7707748, "lon": -122.3913232}, "CAoSLEFGMVFpcFBNb3o4Ukc2bzIxZGtScHBNSXNsdHdkeHlsc2VnVGRackZ6ZzRv": {"osm_id": "446717984", "name": "Jack Early Park", "lat": 37.8048702, "lon": -122.4081675}, "_CPMh2pobEMZ6xVzCThHJw": {"osm_id": "458217887", "name": "parking lot", "lat": 37.77413544324885, "lon": -122.4238630962277}, "hkUKCExd7crDXoDgS4Be6A": {"osm_id": "461786910", "name": "Mission Valencia Plaza", "lat": 37.74554158572972, "lon": -122.4199369044085}, "N5xd_kSi8psQ5Yo088edug": {"osm_id": "462144467", "name": "Mullen & Peralta Mini Park", "lat": 37.74611949302812, "lon": -122.4088270645561}, "qBc3mNmm38pDEnNzT5ToMg": {"osm_id": "469293906", "name": "Kelloch-Velasco Park", "lat": 37.70888411834889, "lon": -122.4131916518936}, "CAoSLEFGMVFpcE5ZT2VQclNvVVBxMm5TbXczZWN4ckZlSkdsaUp3S1dPRFhDUW5U": {"osm_id": "966201482", "name": "Lombard Street", "lat": 37.802139, "lon": -122.4187399}, "CAoSLEFGMVFpcFBiQjdPa0wwQzI4MXNkSVZLaHFETDBWdDZNc1dXT2hwU0YyQ3kz": {"osm_id": "476267889", "name": "Golden Gate Park Polo Field and Stadium", "lat": 37.7681793, "lon": -122.4930699}, "CAoSLEFGMVFpcE5qdDhYNXJ0Q3RvN3F6UlktOFY2T0NZRG96LUZucGJyQzRjUGRf": {"osm_id": "479424639", "name": "Bosworth Street Open Space", "lat": 37.73427610801014, "lon": -122.4376644697216}, "CAoSLEFGMVFpcE9fSmRCNDd2dXN4WnpiSWI5WWNySTZFY2hZVHZ5aEdVemJDc3pB": {"osm_id": "480114806", "name": "Adah's Stairway Garden", "lat": 37.7700823, "lon": -122.4387426}, "CAoSLEFGMVFpcFBoX1lfMUs2Z0YtZDYyUWVUUnJJQWJoTWF5SzJveW9zWVZiMGNR": {"osm_id": "480149175", "name": "Buena Vista Dog Run", "lat": 37.7691650390625, "lon": -122.4422225952148}, "ty3AJNp9E8tTURUulnVUtA": {"osm_id": "480159320", "name": "Cow Hollow Playground", "lat": 37.79730963298282, "lon": -122.4451168536422}, "OPtDNNp4zRawRqKyQjLz8Q": {"osm_id": "480966708", "name": "Greyhound Rock", "lat": 37.0779698364212, "lon": -122.2678608315828}, "zTHE6M2fU3enyR0AhQqq6A": {"osm_id": "534610947", "name": "Tunnel Top Park", "lat": 37.75215849720295, "lon": -122.3926473952141}, "p907kznu4kWH2vZ5biifSg": {"osm_id": "534677321", "name": "Daggett Park", "lat": 37.76678267319158, "lon": -122.3961569555429}, "_Wq-VUQhZb3LVLRcBWol6g": {"osm_id": "545363150", "name": "Fillmore & Turk Mini Park", "lat": 37.78001557868064, "lon": -122.4317012144056}, "CAoSLEFGMVFpcE54ZVZBeXhMeEcxV01IbC1qNk0tNVJWeFNnczl6c1ZSaXNQd1NU": {"osm_id": "545408838", "name": "Raymond Kimbell Playground", "lat": 37.7830758, "lon": -122.4350456}, "CAoSLEFGMVFpcFBKaDFHMUFnMlE5djN3M3NWQ01GdGdQc0tJaHdfdnJFNUZWbHgt": {"osm_id": "546510348", "name": "Japan Town Peace Plaza", "lat": 37.7851392, "lon": -122.429802}, "BSu_keYvaRfFV191UNIz8Q": {"osm_id": "546784745", "name": "Golden Gate & Steiner Mini Park", "lat": 37.77959825887814, "lon": -122.4336704592662}, "xra6M0OGt7Wq8qk7Swm5EA": {"osm_id": "548072819", "name": "Gateway Community Garden", "lat": 37.78285829425754, "lon": -122.4360767742671}, "AbIe0Wnb8-ntRi5xuRzdoQ": {"osm_id": "552549335", "name": "Mary Ellen Pleasant Memorial Park", "lat": 37.78752007251402, "lon": -122.4268343225995}, "CAoSLEFGMVFpcFB3YnBuR2hhSGczOGlBOTljRjhvZ20tNGtxTDdyYmxBa0RVRnhi": {"osm_id": "558731934", "name": "San Francisco Ferry Building", "lat": 37.7954937, "lon": -122.393462}, "jhzS2FqLRBxcY4vGKqOF_w": {"osm_id": "562137946", "name": "(de)Appropriation Project Parklet", "lat": 37.75288994816314, "lon": -122.420758362124},